[{"city":"בית רבן","time":60,"lat":31.817497,"lng":34.7289,"region":"אשדוד 267"} ,
{"city":"כרם יבנה","time":60,"lat":31.8175552,"lng":34.722746,"region":"אשדוד 267"} ,
{"city":"צופיה","time":60,"lat":31.8175552,"lng":34.722746,"region":"אשדוד 267"} ,
{"city":"ברורים","time":60,"lat":31.8175552,"lng":34.722746,"region":"אשדוד 268"} ,
{"city":"עד הלום","time":45,"lat":31.762249,"lng":34.662324,"region":"אשדוד 271"} ,
{"city":"כנות","time":60,"lat":31.762249,"lng":34.662324,"region":"אשדוד 273"} ,
{"city":"גפן","time":60,"lat":31.7415764,"lng":34.8774005,"region":"אשדוד 278"} ,
{"city":"שריגים","time":60,"lat":31.6771235,"lng":34.9349875,"region":"אשדוד 278"} ,
{"city":"קדמה","time":45,"lat":31.6771235,"lng":34.9349875,"region":"אשדוד 280"} ,
{"city":"א.ת אשקלון","time":30,"lat":32.0586191,"lng":34.7621429,"region":"אשקלון 247"} ,
{"city":"בית שיקמה","time":30,"lat":31.6379386,"lng":34.608175,"region":"אשקלון 250"} ,
{"city":"אל בירה בהר חברון","time":60,"lat":31.4355865,"lng":34.926226,"region":"באר שבע 285"} ,
{"city":"כרם עמי","time":60,"lat":31.52982,"lng":34.930978,"region":"באר שבע 285"} ,
{"city":"בית א רוש אל פוקא","time":60,"lat":31.4526776,"lng":34.926241,"region":"באר שבע 285"} ,
{"city":"אל חוקוק","time":45,"lat":31.3793035,"lng":34.740385,"region":"באר שבע 286"} ,
{"city":"נטע","time":60,"lat":31.4778925,"lng":34.927774,"region":"באר שבע 285"} ,
{"city":"א זיאדנה צפונית לרהט","time":45,"lat":31.4144345,"lng":34.77579,"region":"באר שבע 286"} ,
{"city":"אל עתאיקה","time":45,"lat":31.3769135,"lng":34.746405,"region":"באר שבע 286"} ,
{"city":"א זיאדנה דרומית לרהט","time":45,"lat":31.3670925,"lng":34.740095,"region":"באר שבע 286"} ,
{"city":"הוזייל","time":45,"lat":31.4144865,"lng":34.761872,"region":"באר שבע 286"} ,
{"city":"בטחה","time":45,"lat":31.3340975,"lng":34.632266,"region":"באר שבע 289"} ,
{"city":"מסעודין אל עזאזמה","time":60,"lat":31.1992635,"lng":34.817449,"region":"באר שבע 292"} ,
{"city":"דייר ראפאת","time":90,"lat":31.7765295,"lng":34.947439,"region":"בית שמש 188"} ,
{"city":"פארק צרעה","time":90,"lat":31.7618814,"lng":34.9697485,"region":"בית שמש 188"} ,
{"city":"רוגלית","time":90,"lat":31.673319,"lng":35.005866,"region":"בית שמש 188"} ,
{"city":"גלגל","time":90,"lat":32.000016,"lng":35.444643,"region":"בקעה 132"} ,
{"city":"ייט'ב","time":90,"lat":31.948263,"lng":35.4229755,"region":"בקעה 132"} ,
{"city":"אלון","time":90,"lat":32.1467915,"lng":34.843792,"region":"בקעה 133"} ,
{"city":"עוגא אתחתא","time":90,"lat":31.948063,"lng":35.471164,"region":"בקעה 132"} ,
{"city":"בוקעתא","time":10,"lat":33.2099985,"lng":35.779975,"region":"גולן 1"} ,
{"city":"מגדל שמס","time":10,"lat":33.2688835,"lng":35.7757855,"region":"גולן 1"} ,
{"city":"אלי עד","time":10,"lat":32.8049809,"lng":35.734976,"region":"גולן 2"} ,
{"city":"עין קנייא","time":10,"lat":33.2392625,"lng":35.734407,"region":"גולן 1"} ,
{"city":"גדידה מכר","time":30,"lat":32.9313151,"lng":35.1422211,"region":"גליל עליון 37"} ,
{"city":"לוחמי הגיטאות","time":30,"lat":32.9628374,"lng":35.0984955,"region":"גליל עליון 35"} ,
{"city":"שייח דנון","time":30,"lat":32.9937465,"lng":35.1490095,"region":"גליל עליון 37"} ,
{"city":"אשרת","time":30,"lat":32.9715484,"lng":35.156304,"region":"גליל עליון 38"} ,
{"city":"ביענה","time":30,"lat":32.9293434,"lng":35.2790699,"region":"גליל עליון 42"} ,
{"city":"דייר אל אסד","time":30,"lat":32.944313,"lng":35.2749165,"region":"גליל עליון 42"} ,
{"city":"שגור","time":30,"lat":32.9275065,"lng":35.265491,"region":"גליל עליון 42"} ,
{"city":"קובסי","time":30,"lat":32.9422275,"lng":35.299433,"region":"גליל עליון 42"} ,
{"city":"קדיתא","time":30,"lat":33.0059535,"lng":35.468309,"region":"גליל עליון 44"} ,
{"city":"לבנים","time":60,"lat":32.8628485,"lng":35.4964015,"region":"גליל תחתון 55  "} ,
{"city":"מגאר","time":60,"lat":32.8733075,"lng":35.4155615,"region":"גליל תחתון 57"} ,
{"city":"בועיינה נוגיידאת","time":60,"lat":32.8124755,"lng":35.3739565,"region":"גליל תחתון 57"} ,
{"city":"דייר חנא","time":60,"lat":32.8641421,"lng":35.3676535,"region":"גליל תחתון 60"} ,
{"city":"עינבר","time":60,"lat":32.9097475,"lng":35.423727,"region":"גליל תחתון 57"} ,
{"city":"תרדיון","time":60,"lat":32.9097475,"lng":35.423727,"region":"גליל תחתון 60"} ,
{"city":"ערב אזונר","time":60,"lat":32.8704565,"lng":35.368934,"region":"גליל תחתון 60"} ,
{"city":"סואעד","time":60,"lat":32.7669245,"lng":35.168158,"region":"גליל תחתון 63  "} ,
{"city":"מרכז אזורי מישגב","time":60,"lat":32.859203,"lng":,35.2599655,"region":"גליל תחתון 63  "} ,
{"city":"ערב אל נעים","time":60,"lat":32.8880725,"lng":35.290128,"region":"גליל תחתון 63  "} ,
{"city":"ערב אל סגיראת","time":60,"lat":32.8004155,"lng":35.188569,"region":"גליל תחתון 63  "} ,
{"city":"ערב אל סמניה","time":60,"lat":32.8011555,"lng":35.193919,"region":"גליל תחתון 63  "} ,
{"city":"הכפר הירוק","time":90,"lat":32.135172,"lng":34.829305,"region":"דן 155"} ,
{"city":"כפר אז'ר","time":90,"lat":32.0585866,"lng":34.842346,"region":"דן 161"} ,
{"city":"מעש","time":90,"lat":32.0618955,"lng":34.887924,"region":"דן 161"} ,
{"city":"נווה אפעל","time":90,"lat":32.047236,"lng":34.835859,"region":"דן 161"} ,
{"city":"רמת אפעל","time":90,"lat":32.047236,"lng":34.835859,"region":"דן 161"} ,
{"city":"מקווה ישראל","time":90,"lat":32.028254,"lng":34.778198,"region":"דן 162"} ,
{"city":"אזור תעשייה נעמן","time":60,"lat":32.028254,"lng":34.778198,"region":"הקריות 70"} ,
{"city":"קרית ביאליק","time":60,"lat":32.8426381,"lng":35.0939164,"region":"הקריות 70"} ,
{"city":"קרית חיים","time":60,"lat":32.833333,"lng":35.066667,"region":"הקריות 70"} ,
{"city":"קרית שמואל","time":60,"lat":32.840391,"lng":35.073807,"region":"הקריות 70"} ,
{"city":"אבטין","time":60,"lat":32.762806,"lng":35.1107305,"region":"הקריות 71"} ,
{"city":"סרכיס","time":60,"lat":32.8061945,"lng":35.144518,"region":"הקריות 71"} ,
{"city":"נמל חיפה","time":60,"lat":32.8249995,"lng":35.0002778,"region":"חיפה 78"} ,
{"city":"א דיר במערב הר חברון","time":90,"lat":31.6552315,"lng":35.025616,"region":"יהודה 188"} ,
{"city":"א דיר במזרח הר חברון","time":90,"lat":31.6526505,"lng":35.214342,"region":"יהודה 200"} ,
{"city":"ביאדה בהר חברון","time":90,"lat":31.6952835,"lng":35.248915,"region":"יהודה 200"} ,
{"city":"גוב א רום","time":90,"lat":31.7441435,"lng":35.268429,"region":"יהודה 200"} ,
{"city":"אפרתה","time":90,"lat":31.6670851,"lng":35.171978,"region":"יהודה 206"} ,
{"city":"מועסכר אל ערוב","time":90,"lat":31.6226015,"lng":35.138126,"region":"יהודה 206"} ,
{"city":"אל עלקה אל פוקא","time":90,"lat":31.4603755,"lng":35.009196,"region":"יהודה 207"} ,
{"city":"יטא יוטה","time":90,"lat":31.4441495,"lng":35.090105,"region":"יהודה 207"} ,
{"city":"טנא","time":90,"lat":31.3748325,"lng":34.9573675,"region":"יהודה 207"} ,
{"city":"כרמל","time":90,"lat":32.7286111,"lng":35.0466667,"region":"יהודה 207"} ,
{"city":"עתניאל","time":90,"lat":31.43886,"lng":35.0311099,"region":"יהודה 207"} ,
{"city":"שוויכה בהר חברון","time":90,"lat":31.4025881,"lng":35.007054,"region":"יהודה 207"} ,
{"city":"ראפאת ליד סמוע","time":90,"lat":31.3863315,"lng":35.061404,"region":"יהודה 207"} ,
{"city":"בית חנינא","time":90,"lat":31.830131,"lng":35.225205,"region":"ירושלים 194"} ,
{"city":"דיר כרמיזן","time":90,"lat":31.7271035,"lng":35.172569,"region":"ירושלים 194"} ,
{"city":"עין חוד","time":60,"lat":32.6915505,"lng":34.999556,"region":"כרמל 81"} ,
{"city":"בית צבי","time":60,"lat":32.078494,"lng":34.8217,"region":"כרמל 81"} ,
{"city":"עספיא","time":60,"lat":32.7183395,"lng":35.0633676,"region":"כרמל 82"} ,
{"city":"מאיר שפיה","time":90,"lat":32.7183395,"lng":35.0633676,"region":"מנשה 102"} ,
{"city":"נווה אבות","time":90,"lat":32.485643,"lng":34.967296,"region":"מנשה 106"} ,
{"city":"שער מנשה","time":90,"lat":32.509997,"lng":35.0052,"region":"מנשה 108"} ,
{"city":"קדר","time":90,"lat":31.7540656,"lng":35.3106249,"region":"מעלה אדומים 200"} ,
{"city":"אבו טראש","time":90,"lat":31.2890445,"lng":34.854024,"region":"נגב 287"} ,
{"city":"אבו עבדון","time":90,"lat":31.324272,"lng":34.874118,"region":"נגב 287"} ,
{"city":"אבו כף אום בטין","time":90,"lat":31.292185,"lng":34.882417,"region":"נגב 287"} ,
{"city":"אבו גאבר","time":90,"lat":31.3152595,"lng":34.868677,"region":"נגב 287"} ,
{"city":"א נבארי","time":90,"lat":31.2824665,"lng":34.941101,"region":"נגב 296"} ,
{"city":"א סייד ","time":90,"lat":31.2817198,"lng":34.91629,"region":"נגב 296"} ,
{"city":"אבו גאבר דרומית ממיתר","time":90,"lat":31.3121635,"lng":34.934897,"region":"נגב 296"} ,
{"city":"אבו עמרה","time":90,"lat":31.2821875,"lng":34.872739,"region":"נגב 287"} ,
{"city":"אבו קוידר אל עפאוי דרומית לנבטים","time":90,"lat":31.192842,"lng":34.923911,"region":"נגב 297"} ,
{"city":"שגב שלום","time":90,"lat":31.2126565,"lng":34.848228,"region":"נגב 297"} ,
{"city":"א דהאבשה","time":90,"lat":31.2280955,"lng":35.0027075,"region":"נגב 299"} ,
{"city":"אבו קרינאת מערבית לכסיפה","time":90,"lat":31.2280955,"lng":34.961182,"region":"נגב 299"} ,
{"city":"אל גנאמי","time":90,"lat":31.2280955,"lng":34.9510737,"region":"נגב 299"} ,
{"city":"אבו רביעה","time":90,"lat":31.2280955,"lng":34.959912,"region":"נגב 299"} ,
{"city":"אל קרעאן דרומית לערד","time":90,"lat":31.2280955,"lng":35.0051118,"region":"נגב 299"} ,
{"city":"נצאצרה","time":90,"lat":31.2280955,"lng":34.961182,"region":"נגב 299"} ,
{"city":"עזאזמה דרומית לרמת חובב","time":90,"lat":31.1680776,"lng":34.8366975,"region":"נגב 300"} ,
{"city":"אל מחדי צפונית לדימונה","time":90,"lat":31.1613541,"lng":34.9492805,"region":"נגב 301"} ,
{"city":"עזאזמה מזרחית לרמת חובב","time":90,"lat":31.1823184,"lng":34.8366975,"region":"נגב 300"} ,
{"city":"תראבין א צאנה שבט","time":90,"lat":31.202655,"lng":34.8366975,"region":"נגב 300"} ,
{"city":"אל עול צפונית לדימונה","time":90,"lat":31.1384245,"lng":34.9490902,"region":"נגב 301"} ,
{"city":"הוואשלה","time":90,"lat":31.1501228,"lng":34.9433859,"region":"נגב 301"} ,
{"city":"עזאזמה דרומית לשגב שלום","time":90,"lat":31.1972986,"lng":34.8366975,"region":"נגב 300"} ,
{"city":"אל עמראני דרום מערב לדימונה","time":90,"lat":31.130917,"lng":34.9490902,"region":"נגב 301"} ,
{"city":"אורון","time":90,"lat":31.0672797,"lng":34.9486656,"region":"נגב 301"} ,
{"city":"רמת חובב","time":90,"lat":31.1797685,"lng":34.832586,"region":"נגב 300"} ,
{"city":"רחמה","time":90,"lat":31.3037395,"lng":34.7870702,"region":"נגב 301"} ,
{"city":"קרנב אבו סלב","time":90,"lat":31.1230075,"lng":34.9645698,"region":"נגב 301"} ,
{"city":"ניצני סיני","time":60,"lat":31.0586085,"lng":34.7047533,"region":"נגב 302"} ,
{"city":"שלווה במדבר","time":90,"lat":31.0344679,"lng":34.8744708,"region":"נגב 305"} ,
{"city":"ניר עם","time":15,"lat":31.371673,"lng":34.7278414,"region":"עוטף עזה 220"} ,
{"city":"מכללת ספיר","time":15,"lat":31.371673,"lng":34.70185,"region":"עוטף עזה 220"} ,
{"city":"בארי","time":15,"lat":31.3396065,"lng":34.6839391,"region":"עוטף עזה 227"} ,
{"city":"זמרת","time":15,"lat":31.3330326,"lng":34.71381,"region":"עוטף עזה 225"} ,
{"city":"דקל","time":15,"lat":31.3194265,"lng":34.737828,"region":"עוטף עזה 238"} ,
{"city":"חגלה","time":90,"lat":31.8134377,"lng":34.892897,"region":"עמק חפר 137"} ,
{"city":"בית ברל","time":90,"lat":31.7074443,"lng":34.8659,"region":"עמק חפר 139"} ,
{"city":"צור יגאל","time":90,"lat":31.7238353,"lng":34.8795695,"region":"עמק חפר 139"} ,
{"city":"באקה גת","time":90,"lat":31.8644678,"lng":34.9009394,"region":"עמק חפר 149"} ,
{"city":"זיתא ליד באקה אל ערביה","time":90,"lat":31.8479093,"lng":34.9281631,"region":"עמק חפר 149"} ,
{"city":"כפר תקווה","time":60,"lat":32.0223617,"lng":34.940079,"region":"עמק יזרעאל 86"} ,
{"city":"גיניגר","time":60,"lat":32.0223617,"lng":35.0288824,"region":"עמק יזרעאל 87"} ,
{"city":"מנשית זבדה","time":60,"lat":31.9631153,"lng":34.9790335,"region":"עמק יזרעאל 87"} ,
{"city":"נווה יער","time":60,"lat":32.0223617,"lng":34.9677016,"region":"עמק יזרעאל 87"} ,
{"city":"טמרה יזרעאל","time":60,"lat":31.9459828,"lng":35.107447,"region":"עמק יזרעאל 90"} ,
{"city":"מרחביה מושב","time":60,"lat":31.9120443,"lng":35.040354,"region":"עמק יזרעאל 90"} ,
{"city":"נורית","time":60,"lat":31.9110038,"lng":35.061488,"region":"עמק יזרעאל 90"} ,
{"city":"עין חרוד איחוד","time":60,"lat":31.8739519,"lng":35.1595474,"region":"עמק יזרעאל 90"} ,
{"city":"אומן","time":60,"lat":39.9840962,"lng":32.8858137,"region":"עמק יזרעאל 93"} ,
{"city":"טייבה ליד מולדת","time":60,"lat":31.8739519,"lng":35.1595474,"region":"עמק יזרעאל 93"} ,
{"city":"מוקייבלה","time":60,"lat":31.9110038,"lng":35.0536775,"region":"עמק יזרעאל 93"} ,
{"city":"צנדלה","time":60,"lat":31.9110038,"lng":35.0536775,"region":"עמק יזרעאל 93"} ,
{"city":"יטבתה","time":180,"lat":30.559422,"lng":35.0245969,"region":"ערבה 310"} ,
{"city":"ספיר","time":180,"lat":31.371673,"lng":34.70185,"region":"ערבה 310"} ,
{"city":"כפר ראש הנקרה","time":10,"lat":32.1500044,"lng":34.9349932,"region":"קו העימות 14"} ,
{"city":"גורנות הגליל","time":10,"lat":32.1456884,"lng":35.0076258,"region":"קו העימות 15"} ,
{"city":"ריחאנייה","time":10,"lat":32.0938279,"lng":35.1761229,"region":"קו העימות 23"} ,
{"city":"תל חי","time":10,"lat":32.1877144,"lng":35.1761229,"region":"קו העימות 26"} ,
{"city":"קלע","time":15,"lat":32.2096228,"lng":35.2550505,"region":"קצרין 7"} ,
{"city":"עראבה ליד גנין","time":90,"lat":31.8479093,"lng":34.9861739,"region":"שומרון 118"} ,
{"city":"רומאנה ממזרח לאום אל פחם","time":90,"lat":31.8932868,"lng":35.0330699,"region":"שומרון 118"} ,
{"city":"בורקה ליד שכם","time":90,"lat":31.8479093,"lng":35.0084197,"region":"שומרון 119"} ,
{"city":"גודידה","time":90,"lat":32.071769,"lng":34.97406,"region":"שומרון 119"} ,
{"city":"גרבה","time":90,"lat":31.6601373,"lng":34.8449851,"region":"שומרון 119"} ,
{"city":"זאוויה בצפון שומרון","time":90,"lat":31.8479093,"lng":35.0071319,"region":"שומרון 119"} ,
{"city":"נזלת אבו נאר","time":90,"lat":31.8479093,"lng":34.9281631,"region":"שומרון 119"} ,
{"city":"ניסף גוביל","time":90,"lat":31.8479093,"lng":35.0084197,"region":"שומרון 119"} ,
{"city":"סיר","time":90,"lat":31.8479093,"lng":35.040966,"region":"שומרון 119"} ,
{"city":"עקבה בשומרון","time":90,"lat":31.8479093,"lng":35.0569136,"region":"שומרון 119"} ,
{"city":"בית א אל פוקא","time":90,"lat":31.6776595,"lng":35.079701,"region":"שומרון 120"} ,
{"city":"הר גריזים","time":90,"lat":31.8479093,"lng":35.055455,"region":"שומרון 120"} ,
{"city":"חוארה","time":90,"lat":31.8479093,"lng":35.055455,"region":"שומרון 120"} ,
{"city":"חגה","time":90,"lat":31.7291183,"lng":34.9488491,"region":"שומרון 120"} ,
{"city":"נאקורה","time":90,"lat":31.8479093,"lng":35.0084197,"region":"שומרון 120"} ,
{"city":"סאלם","time":90,"lat":31.8934904,"lng":34.987859,"region":"שומרון 120"} ,
{"city":"ענב","time":90,"lat":31.7697748,"lng":35.0275652,"region":"שומרון 120"} ,
{"city":"קראות בני חסן","time":90,"lat":31.671242,"lng":34.9861905,"region":"שומרון 121"} ,
{"city":"עופרים","time":90,"lat":31.6699678,"lng":34.8659,"region":"שומרון 123"} ,
{"city":"ראפאת ליד פדואל","time":90,"lat":31.6577495,"lng":34.9656485,"region":"שומרון 123"} ,
{"city":"לובאן שרקיה","time":90,"lat":31.6700515,"lng":35.0275652,"region":"שומרון 124"} ,
{"city":"עטארה ליד ביר זית","time":90,"lat":31.6319591,"lng":35.1354325,"region":"שומרון 124"} ,
{"city":"אזור תעשייה שער בנימין","time":90,"lat":31.5398183,"lng":35.017051,"region":"שומרון 125"} ,
{"city":"קראות בני זיד","time":90,"lat":31.6700515,"lng":35.0275652,"region":"שומרון 124"} ,
{"city":"טייבה ליד עפרה","time":90,"lat":31.6700515,"lng":35.031934,"region":"שומרון 125"} ,
{"city":"עפרה","time":90,"lat":31.6700515,"lng":35.0275652,"region":"שומרון 125"} ,
{"city":"בית עור אל פוקא","time":90,"lat":31.5632341,"lng":34.989871,"region":"שומרון 126"} ,
{"city":"גבע מצפון לירושלים","time":90,"lat":31.537517,"lng":35.017051,"region":"שומרון 126"} ,
{"city":"גפנא","time":90,"lat":31.6700515,"lng":35.0114035,"region":"שומרון 126"} ,
{"city":"טירה ליד בית חורון","time":90,"lat":31.5419635,"lng":34.999295,"region":"שומרון 126"} ,
{"city":"ראפאת ליד גבעת זאב","time":90,"lat":31.5632341,"lng":34.9965809,"region":"שומרון 126"} ,
{"city":"נמל תעופה בן גוריון","time":90,"lat":31.6097253,"lng":34.8504791,"region":"שפלה 172"} ,
{"city":"גמזו","time":90,"lat":31.5851498,"lng":34.8541948,"region":"שפלה 181"} ,
{"city":"כפר הארנים","time":90,"lat":31.5851498,"lng":34.8541948,"region":"שפלה 181"} ,
{"city":"אירוס","time":90,"lat":31.7511523,"lng":34.8659,"region":"שפלה 182"} ,
{"city":"גן שלמה","time":90,"lat":31.5520794,"lng":34.719284,"region":"שפלה 182"} ,
{"city":"מרכז קניות ביל'ו","time":90,"lat":31.5513998,"lng":34.719284,"region":"שפלה 184"} ,
{"city":"מרכז קניות בילו","time":90,"lat":31.5513998,"lng":34.719284,"region":"שפלה 184"} ,
{"city":"ביתן אהרן","time":90,"lat":31.7971747,"lng":34.8659,"region":"שרון 138"} ,
{"city":"קרית שלמה","time":90,"lat":31.7268823,"lng":34.8659,"region":"שרון 142"} ,
{"city":"אכסאל","time":60,"lat":31.9481171,"lng":35.043064,"region":"תבור 95"} ,
{"city":"ערב אל פמאז","time":60,"lat":31.9516648,"lng":35.0452914,"region":"תבור 95"} ,
{"city":"אוהלו","time":60,"lat":31.9304976,"lng":35.1761229,"region":"תבור 98"} ,
{"city":"שבלי","time":60,"lat":31.9159074,"lng":35.1595474,"region":"תבור 96"} ,
{"city":"כינרת מושבה","time":60,"lat":31.9307743,"lng":35.1761229,"region":"תבור 98"} ,
{"city":"הודיות ","time":60,"lat":31.9635459,"lng":35.1761229,"region":"תבור 98"} ,
{"city":"כפר נהר הירדן","time":60,"lat":31.9635459,"lng":35.1761229,"region":"תבור 98"}]