[{"city":"אילות","time":30,"region":"אילת 311","long":29.580548,"lat":34.963023},
{"city":"יבנה","time":60,"region":"אשדוד 266","long":31.877958,"lat":34.739449},
{"city":"בית גמליאל","time":60,"region":"אשדוד 267","long":31.856128,"lat":34.760947},
{"city":"בניה","time":60,"region":"אשדוד 267","long":31.84344399999999,"lat":34.751793},
{"city":"כפר אביב","time":60,"region":"אשדוד 267","long":31.831039,"lat":34.722577},
{"city":"אילת","time":30,"region":"אילת 311","long":29.557669,"lat":34.951925},
{"city":"גאליה","time":60,"region":"אשדוד 266","long":31.885644,"lat":34.765351},
{"city":"כפר הנגיד","time":60,"region":"אשדוד 266","long":31.887134,"lat":34.748725},
{"city":"בן זכאי","time":60,"region":"אשדוד 267","long":31.85722299999999,"lat":34.727432},
{"city":"גני טל","time":60,"region":"אשדוד 268","long":31.788573,"lat":34.791392},
{"city":"באר טוביה","time":45,"region":"אשדוד 275","long":31.737127,"lat":34.72557},
{"city":"שדה יואב","time":30,"region":"אשקלון 249","long":31.645723,"lat":34.676849},
{"city":"בקוע","time":90,"region":"בית שמש 188","long":31.827899,"lat":34.924732},
{"city":"מכורה","time":90,"region":"בקעה 130","long":32.164159,"lat":35.423623},
{"city":"גיתית","time":90,"region":"בקעה 131","long":32.10027300000001,"lat":35.395443},
{"city":"נמרוד","time":10,"region":"גולן 1","long":33.244978,"lat":35.750842},
{"city":"אבני איתן","time":10,"region":"גולן 2","long":32.824808,"lat":35.765777},
{"city":"אזור תעשייה בני יהודה","time":10,"region":"גולן 2","long":32.803805,"lat":35.716419},
{"city":"מסעדה","time":10,"region":"גולן 1","long":33.23105,"lat":35.756289},
{"city":"אפיק","time":10,"region":"גולן 2","long":32.779428,"lat":35.702994},
{"city":"גשור","time":10,"region":"גולן 2","long":32.819941,"lat":35.715708},
{"city":"אלוני הבשן","time":10,"region":"גולן 3","long":33.044087,"lat":35.838507},
{"city":"אליפלט","time":30,"region":"גליל עליון 50","long":32.947834,"lat":35.548516},
{"city":"כפר חיטים","time":60,"region":"גליל תחתון 55 ","long":32.799998,"lat":35.50328},
{"city":"כלנית","time":60,"region":"גליל תחתון 57","long":32.875328,"lat":35.453972},
{"city":"אשחר","time":60,"region":"גליל תחתון 60","long":32.885084,"lat":35.299622},
{"city":"הרדוף","time":60,"region":"גליל תחתון 63 ","long":32.763717,"lat":35.174663},
{"city":"יסעור","time":60,"region":"גליל תחתון 63 ","long":32.901145,"lat":35.166641},
{"city":"גליל ים","time":90,"region":"דן 155","long":32.158797,"lat":34.831876},
{"city":"כפר שמריהו","time":90,"region":"דן 155","long":32.187123,"lat":34.823124},
{"city":"גבעתיים","time":90,"region":"דן 160","long":32.072176,"lat":34.808871},
{"city":"הרצליה","time":90,"region":"דן 155","long":32.162413,"lat":34.844675},
{"city":"רמת השרון","time":90,"region":"דן 155","long":32.137793,"lat":34.840278},
{"city":"גבעת שמואל","time":90,"region":"דן 160","long":32.077299,"lat":34.849206},
{"city":"בני ברק","time":90,"region":"דן 160","long":32.084932,"lat":34.835226},
{"city":"תל אביב יפו","time":90,"region":"דן 157","long":32.0852999,"lat":34.78176759999999},
{"city":"חוות שלם","time":90,"region":"דן 160","long":32.039601,"lat":34.822714},
{"city":"נוקדים","time":90,"region":"יהודה 200","long":31.645331,"lat":35.244064},
{"city":"בתיר","time":90,"region":"יהודה 206","long":31.728181,"lat":35.138032},
{"city":"מעסרה","time":90,"region":"יהודה 200","long":31.658258,"lat":35.189953},
{"city":"שמעה","time":90,"region":"יהודה 207","long":31.387342,"lat":35.012699},
{"city":"שני ליבנה","time":90,"region":"יהודה 207","long":31.356576,"lat":35.06989100000001},
{"city":"רוג'ם אום ח'יר","time":90,"region":"יהודה 207","long":31.424476,"lat":35.196438},
{"city":"קרית ארבע","time":90,"region":"יהודה 207","long":31.529326,"lat":35.115625},
{"city":"ראבוד","time":90,"region":"יהודה 207","long":31.431382,"lat":35.021854},
{"city":"רוקעה","time":90,"region":"יהודה 207","long":31.461812,"lat":35.113605},
{"city":"תפוח","time":90,"region":"יהודה 207","long":31.538448,"lat":35.050973},
{"city":"נשר","time":60,"region":"כרמל 80","long":32.7649,"lat":35.049191},
{"city":"מענית","time":90,"region":"מנשה 108","long":32.457992,"lat":35.026573},
{"city":"גן שמואל","time":90,"region":"מנשה 108","long":32.452911,"lat":34.949311},
{"city":"שדה יצחק","time":90,"region":"מנשה 108","long":32.404959,"lat":34.992168},
{"city":"נבטים","time":90,"region":"נגב 297","long":31.219761,"lat":34.882488},
{"city":"קשכר נבארי","time":90,"region":"נגב 299","long":31.297625,"lat":35.118316},
{"city":"ביר הדאג'","time":90,"region":"נגב 302","long":31.02316,"lat":34.709138},
{"city":"אשלים","time":90,"region":"נגב 302","long":30.964245,"lat":34.699674},
{"city":"באר מילכה","time":60,"region":"נגב 302","long":30.934112,"lat":34.405643},
{"city":"ניצנה כפר נוער","time":60,"region":"נגב 302","long":30.886468,"lat":34.421518},
{"city":"מעלה שביט","time":90,"region":"נגב 302","long":31.001742,"lat":34.765444},
{"city":"משאבי שדה","time":90,"region":"נגב 302","long":31.00404199999999,"lat":34.785029},
{"city":"גברעם","time":15,"region":"עוטף עזה 251","long":31.591461,"lat":34.612156},
{"city":"צור משה","time":90,"region":"עמק חפר 139","long":32.298911,"lat":34.913117},
{"city":"מייסר","time":90,"region":"עמק חפר 149","long":32.445246,"lat":35.042131},
{"city":"גדיש","time":60,"region":"עמק יזרעאל 93","long":32.558844,"lat":35.24443},
{"city":"עפולה","time":60,"region":"עמק יזרעאל 90","long":32.610493,"lat":35.287922},
{"city":"סולם שונם","time":60,"region":"עמק יזרעאל 90","long":32.606278,"lat":35.33352199999999},
{"city":"אדירים","time":60,"region":"עמק יזרעאל 93","long":32.54894100000001,"lat":35.271637},
{"city":"אביטל","time":60,"region":"עמק יזרעאל 93","long":32.557676,"lat":35.306412},
{"city":"רמות נפתלי","time":10,"region":"קו העימות 24","long":33.102354,"lat":35.553313},
{"city":"יפתח","time":10,"region":"קו העימות 24","long":33.128346,"lat":35.55202999999999},
{"city":"גבע","time":60,"region":"עמק יזרעאל 93","long":32.56653000000001,"lat":35.37216},
{"city":"עין חרוד מאוחד","time":60,"region":"עמק יזרעאל 90","long":32.556806,"lat":35.392995},
{"city":"דישון","time":10,"region":"קו העימות 24","long":33.082318,"lat":35.517572},
{"city":"כפר סאלד","time":10,"region":"קו העימות 25","long":33.196035,"lat":35.657993},
{"city":"כפר בלום","time":10,"region":"קו העימות 25","long":33.172527,"lat":35.607938},
{"city":"שוויכה","time":90,"region":"שומרון 119","long":32.335396,"lat":35.034871},
{"city":"שוויכה","time":90,"region":"שומרון 119","long":31.40259,"lat":35.007054},
{"city":"תיאסיר","time":90,"region":"שומרון 119","long":32.339402,"lat":35.396266},
{"city":"מלכיה","time":10,"region":"קו העימות 24","long":33.098589,"lat":35.509624},
{"city":"יאנון","time":90,"region":"שומרון 120","long":32.145335,"lat":35.355599},
{"city":"זוואתא","time":90,"region":"שומרון 120","long":32.24597200000001,"lat":35.227112},
{"city":"ח'ירבת סיר","time":90,"region":"שומרון 120","long":32.196879,"lat":35.05994},
{"city":"יצהר","time":90,"region":"שומרון 120","long":32.168529,"lat":35.235944},
{"city":"כפר סור","time":90,"region":"שומרון 120","long":32.244032,"lat":35.064616},
{"city":"כפר קליל","time":90,"region":"שומרון 120","long":32.190711,"lat":35.275258},
{"city":"סרה","time":90,"region":"שומרון 120","long":32.21048,"lat":35.190414},
{"city":"זיתא","time":90,"region":"שומרון 120","long":32.13685,"lat":35.18652},
{"city":"כפר זיבאד","time":90,"region":"שומרון 120","long":32.225262,"lat":35.070676},
{"city":"כור","time":90,"region":"שומרון 120","long":32.23529,"lat":35.097373},
{"city":"חוות גלעד","time":90,"region":"שומרון 120","long":32.199627,"lat":35.181436},
{"city":"ברק","time":60,"region":"עמק יזרעאל 93","long":32.542821,"lat":35.265291},
{"city":"מעלה לבונה","time":90,"region":"שומרון 124","long":32.054436,"lat":35.239503},
{"city":"קבלאן","time":90,"region":"שומרון 125","long":32.10182,"lat":35.287729},
{"city":"דיר איבזיע","time":90,"region":"שומרון 126","long":31.916154,"lat":35.120532},
{"city":"נופך","time":90,"region":"שפלה 169","long":32.043748,"lat":34.920306},
{"city":"נחלים","time":90,"region":"שפלה 169","long":32.05859700000001,"lat":34.9136},
{"city":"מזור","time":90,"region":"שפלה 169","long":32.050698,"lat":34.931373},
{"city":"עינת","time":90,"region":"שפלה 170","long":32.081948,"lat":34.937514},
{"city":"מגשימים","time":90,"region":"שפלה 169","long":32.044363,"lat":34.899834},
{"city":"בני עטרות","time":90,"region":"שפלה 169","long":32.02147,"lat":34.910146},
{"city":"נחשונים","time":90,"region":"שפלה 169","long":32.063236,"lat":34.947011},
{"city":"רינתיה","time":90,"region":"שפלה 169","long":32.044365,"lat":34.928477},
{"city":"באר יעקב","time":90,"region":"שפלה 178","long":31.943507,"lat":34.83904},
{"city":"יקום","time":90,"region":"שרון 142","long":32.249196,"lat":34.84190299999999},
{"city":"מתן","time":90,"region":"שרון 143","long":32.159377,"lat":34.97319},
{"city":"כדורי","time":60,"region":"תבור 96","long":32.70251,"lat":35.407339},
{"city":"אלומות","time":60,"region":"תבור 98","long":32.706628,"lat":35.546088},
{"city":"מטולה","time":10,"region":"קו העימות 26","long":33.277232,"lat":35.578235},
{"city":"גשר הזיו","time":10,"region":"קו העימות 29","long":33.040532,"lat":35.110563},
{"city":"הגושרים","time":10,"region":"קו העימות 28","long":33.221485,"lat":35.623028},
{"city":"ע'ג'ר","time":10,"region":"קו העימות 28","long":33.272607,"lat":35.623637},
{"city":"שאר ישוב","time":10,"region":"קו העימות 28","long":33.22919,"lat":35.649254},
{"city":"שניר","time":10,"region":"קו העימות 28","long":33.240338,"lat":35.677015},
{"city":"סער","time":10,"region":"קו העימות 29","long":33.028689,"lat":35.109232},
{"city":"בן עמי","time":10,"region":"קו העימות 30","long":33.005369,"lat":35.122218},
{"city":"נהריה","time":10,"region":"קו העימות 29","long":33.0085361,"lat":35.0980514},
{"city":"שבי ציון","time":30,"region":"קו העימות 29","long":32.982079,"lat":35.083005},
{"city":"עברון","time":10,"region":"קו העימות 29","long":32.991149,"lat":35.100031},
{"city":"קצרין","time":15,"region":"קצרין 7","long":32.990998,"lat":35.689865},
{"city":"ג'נין","time":90,"region":"שומרון 119","long":32.462068,"lat":35.302535},
{"city":"ענבתא","time":90,"region":"שומרון 119","long":32.307253,"lat":35.119478},
{"city":"קבאטיה","time":90,"region":"שומרון 119","long":32.409583,"lat":35.280093},
{"city":"נגבה","time":30,"region":"אשקלון 249","long":31.662547,"lat":34.679561},
{"city":"כוכב מיכאל","time":30,"region":"אשקלון 249","long":31.631482,"lat":34.667794},
{"city":"נהורה","time":30,"region":"אשקלון 249","long":31.621321,"lat":34.704496},
{"city":"עוצם","time":30,"region":"אשקלון 249","long":31.637665,"lat":34.705108},
{"city":"נוגה","time":30,"region":"אשקלון 249","long":31.625691,"lat":34.69528},
{"city":"בת הדר","time":30,"region":"אשקלון 250","long":31.648125,"lat":34.597146},
{"city":"שחר","time":30,"region":"אשקלון 249","long":31.618235,"lat":34.723746},
{"city":"שדה יואב","time":30,"region":"אשקלון 249","long":31.645723,"lat":34.676849},
{"city":"נירן","time":90,"region":"בקעה 132","long":31.968178,"lat":35.453892},
{"city":"מסילות","time":60,"region":"בקעת בית שאן 128","long":32.497362,"lat":35.474651},
{"city":"מעוז חיים","time":60,"region":"בקעת בית שאן 128","long":32.49407,"lat":35.550767},
{"city":"מירב","time":60,"region":"בקעת בית שאן 128","long":32.452041,"lat":35.422479},
{"city":"מולדת","time":60,"region":"בקעת בית שאן 128","long":32.586196,"lat":35.438941},
{"city":"מעלה גלבוע","time":60,"region":"בקעת בית שאן 128","long":32.476065,"lat":35.420637},
{"city":"כפר רופין","time":60,"region":"בקעת בית שאן 128","long":32.457549,"lat":35.555673},
{"city":"נווה איתן","time":60,"region":"בקעת בית שאן 128","long":32.492304,"lat":35.533119},
{"city":"מלכישוע","time":60,"region":"בקעת בית שאן 128","long":32.438568,"lat":35.412757},
{"city":"נווה אור","time":60,"region":"בקעת בית שאן 128","long":32.589025,"lat":35.554544},
{"city":"מבוא חמה","time":10,"region":"גולן 2","long":32.736701,"lat":35.655207},
{"city":"כפר חיטים","time":60,"region":"גליל תחתון 55 ","long":32.799998,"lat":35.50328},
{"city":"בית רימון","time":60,"region":"גליל תחתון 61","long":32.781845,"lat":35.327738},
{"city":"אבו נוג'ים","time":90,"region":"יהודה 200","long":31.66192,"lat":35.199291},
{"city":"עין העמק","time":90,"region":"מנשה 103","long":32.629664,"lat":35.082246},
{"city":"מדרך עוז","time":90,"region":"מנשה 103","long":32.59464800000001,"lat":35.157976},
{"city":"משמר העמק","time":90,"region":"מנשה 103","long":32.610063,"lat":35.14267299999999},
{"city":"יוקנעם עילית","time":90,"region":"מנשה 103","long":32.660225,"lat":35.104606},
{"city":"עין השופט","time":90,"region":"מנשה 103","long":32.596811,"lat":35.100445},
{"city":"מגידו","time":90,"region":"מנשה 103","long":32.577899,"lat":35.179972},
{"city":"אלוני יצחק","time":90,"region":"מנשה 104","long":32.509997,"lat":35.00519999999999},
{"city":"אביאל","time":90,"region":"מנשה 104","long":32.531346,"lat":34.993493},
{"city":"רמות מנשה","time":90,"region":"מנשה 103","long":32.597042,"lat":35.057177},
{"city":"רמת השופט","time":90,"region":"מנשה 103","long":32.609356,"lat":35.094079},
{"city":"עין עירון","time":90,"region":"מנשה 106","long":32.484427,"lat":35.010069},
{"city":"תלמי אלעזר","time":90,"region":"מנשה 108","long":32.447228,"lat":34.974991},
{"city":"לקיה","time":90,"region":"נגב 287","long":31.324884,"lat":34.866219},
{"city":"אבו סריחאן","time":90,"region":"נגב 287","long":31.254333,"lat":34.881407},
{"city":"אבו רוקייק","time":90,"region":"נגב 287","long":31.25954,"lat":34.863897},
{"city":"אבו עסא","time":90,"region":"נגב 287","long":31.250246,"lat":34.873389},
{"city":"אבו קרינאת","time":90,"region":"נגב 299","long":31.101264,"lat":34.986851},
{"city":"אבו קרינאת","time":90,"region":"נגב 299","long":31.141714,"lat":34.976162},
{"city":"אבו קרינאת","time":90,"region":"נגב 299","long":31.268995,"lat":35.03005},
{"city":"אבו קרינאת","time":90,"region":"נגב 299","long":31.108701,"lat":35.008119},
{"city":"אל עביד","time":90,"region":"נגב 299","long":31.265044,"lat":35.091313},
{"city":"דריג'את","time":90,"region":"נגב 299","long":31.301885,"lat":35.076793},
{"city":"זבארגה","time":90,"region":"נגב 299","long":31.236449,"lat":35.03419},
{"city":"כוחלה","time":90,"region":"נגב 299","long":31.287112,"lat":35.048572},
{"city":"ג'נאביב","time":90,"region":"נגב 299","long":31.287156,"lat":35.108132},
{"city":"דימונה","time":90,"region":"נגב 301","long":31.069419,"lat":35.033363},
{"city":"גברעם","time":15,"region":"עוטף עזה 251","long":31.591461,"lat":34.612156},
{"city":"ריחן","time":90,"region":"עירון 112","long":32.468752,"lat":35.135271},
{"city":"אייל","time":90,"region":"עמק חפר 139","long":32.210711,"lat":34.978259},
{"city":"אילנות","time":90,"region":"עמק חפר 139","long":32.860816,"lat":35.082655},
{"city":"טירה","time":90,"region":"עמק חפר 139","long":32.235466,"lat":34.950506},
{"city":"טירה","time":90,"region":"עמק חפר 139","long":31.869948,"lat":35.125587},
{"city":"טייבה","time":90,"region":"עמק חפר 139","long":32.266892,"lat":35.009675},
{"city":"גאולים","time":90,"region":"עמק חפר 139","long":32.296487,"lat":34.943862},
{"city":"בני דרור","time":90,"region":"עמק חפר 139","long":32.261795,"lat":34.901791},
{"city":"חרות","time":90,"region":"עמק חפר 139","long":32.240973,"lat":34.914127},
{"city":"כוכב יאיר","time":90,"region":"עמק חפר 139","long":32.220922,"lat":34.992405},
{"city":"יעף","time":90,"region":"עמק חפר 139","long":32.268254,"lat":34.967425},
{"city":"אומץ","time":90,"region":"עמק חפר 149","long":32.369216,"lat":34.993129},
{"city":"ינוב","time":90,"region":"עמק חפר 150","long":32.307431,"lat":34.951384},
{"city":"בית זיד","time":60,"region":"עמק יזרעאל 86","long":32.702414,"lat":35.131109},
{"city":"בצת","time":10,"region":"קו העימות 14","long":33.070047,"lat":35.132636},
{"city":"שחרות","time":180,"region":"ערבה 310","long":29.904093,"lat":34.999173},
{"city":"קטורה","time":180,"region":"ערבה 310","long":29.97088699999999,"lat":35.06135500000001},
{"city":"אדמית","time":10,"region":"קו העימות 15","long":33.078842,"lat":35.20951},
{"city":"אידמית","time":10,"region":"קו העימות 15","long":33.080013,"lat":35.199967},
{"city":"מצובה","time":10,"region":"קו העימות 14","long":33.062312,"lat":35.155705},
{"city":"לימן","time":10,"region":"קו העימות 14","long":33.058732,"lat":35.111815},
{"city":"שלומי","time":10,"region":"קו העימות 14","long":33.072609,"lat":35.145945},
{"city":"סער","time":10,"region":"קו העימות 29","long":33.028689,"lat":35.109232},
{"city":"כנף","time":15,"region":"קצרין 7","long":32.870412,"lat":35.697897},
{"city":"ג'למה","time":90,"region":"שומרון 119","long":32.508814,"lat":35.312956},
{"city":"דיר אבו דעיף","time":90,"region":"שומרון 119","long":32.456061,"lat":35.364922},
{"city":"ג'נין","time":90,"region":"שומרון 119","long":32.462068,"lat":35.302535},
{"city":"ג'לקמוס","time":90,"region":"שומרון 119","long":32.42465,"lat":35.364533},
{"city":"דנאבה","time":90,"region":"שומרון 119","long":32.31232,"lat":35.04193},
{"city":"דיר ע'זאלה","time":90,"region":"שומרון 119","long":32.495505,"lat":35.351854},
{"city":"ג'לבון","time":90,"region":"שומרון 119","long":32.459986,"lat":35.414691},
{"city":"ערבונה","time":90,"region":"שומרון 119","long":32.511904,"lat":35.36431},
{"city":"יאנון","time":90,"region":"שומרון 120","long":32.145335,"lat":35.355599},
{"city":"ברכה","time":90,"region":"שומרון 120","long":32.193264,"lat":35.264885},
{"city":"חוות גלעד","time":90,"region":"שומרון 120","long":32.199627,"lat":35.181436},
{"city":"עיראק בורין","time":90,"region":"שומרון 120","long":32.202409,"lat":35.239118},
{"city":"רפידיה","time":90,"region":"שומרון 120","long":32.227522,"lat":35.223183},
{"city":"בידיה","time":90,"region":"שומרון 121","long":32.113366,"lat":35.077465},
{"city":"מסחה","time":90,"region":"שומרון 121","long":32.107264,"lat":35.050974},
{"city":"דיר ניזאם","time":90,"region":"שומרון 124","long":32.002823,"lat":35.113728},
{"city":"דיר אבו משעל","time":90,"region":"שומרון 124","long":32.00004,"lat":35.070422},
{"city":"דיר ע'סאנה","time":90,"region":"שומרון 124","long":32.046374,"lat":35.098124},
{"city":"יאסוף","time":90,"region":"שומרון 124","long":32.109371,"lat":35.239715},
{"city":"חלמיש","time":90,"region":"שומרון 124","long":32.008313,"lat":35.128876},
{"city":"כובר","time":90,"region":"שומרון 124","long":31.989948,"lat":35.158443},
{"city":"ח'ירבת קיס","time":90,"region":"שומרון 124","long":32.063147,"lat":35.177798},
{"city":"כפר עין","time":90,"region":"שומרון 124","long":32.045124,"lat":35.123807},
{"city":"עטרת","time":90,"region":"שומרון 124","long":32.001207,"lat":35.176982},
{"city":"רחלים","time":90,"region":"שומרון 125","long":32.10246,"lat":35.257756},
{"city":"דיר דיבוואן","time":90,"region":"שומרון 125","long":31.911205,"lat":35.268988},
{"city":"בילעין","time":90,"region":"שומרון 126","long":31.92851599999999,"lat":35.070954},
{"city":"רמון","time":90,"region":"שומרון 125","long":31.927317,"lat":35.299468},
{"city":"רמון","time":90,"region":"שומרון 125","long":30.77611109999999,"lat":34.6666667},
{"city":"ראש העין","time":90,"region":"שפלה 170","long":32.095838,"lat":34.952177},
{"city":"אחיעזר","time":90,"region":"שפלה 174","long":31.981671,"lat":34.871821},
{"city":"חדיד","time":90,"region":"שפלה 173","long":31.969429,"lat":34.932156},
{"city":"מצליח","time":90,"region":"שפלה 178","long":31.906364,"lat":34.871278},
{"city":"חשמונאים","time":90,"region":"שפלה 181","long":31.93263099999999,"lat":35.023269},
{"city":"גיבתון","time":90,"region":"שפלה 182","long":31.888318,"lat":34.79906},
{"city":"בית קשת","time":60,"region":"תבור 96","long":32.718446,"lat":35.394952},
{"city":"אלומות","time":60,"region":"תבור 98","long":32.706628,"lat":35.546088},
{"city":"שדמות דבורה","time":60,"region":"תבור 96","long":32.696245,"lat":35.43641},
{"city":"שעורים","time":60,"region":"תבור 96","long":32.696828,"lat":35.417603},
{"city":"אפיקים","time":60,"region":"תבור 98","long":32.680564,"lat":35.57773},
{"city":"עין דור","time":60,"region":"תבור 96","long":32.655468,"lat":35.416388},
{"city":"כפר תבור","time":60,"region":"תבור 96","long":32.687346,"lat":35.419972},
{"city":"כפר קיש","time":60,"region":"תבור 96","long":32.666087,"lat":35.44895},
{"city":"אשדות יעקב מאוחד","time":60,"region":"תבור 98","long":32.664808,"lat":35.582769},
{"city":"אשדות יעקב איחוד","time":60,"region":"תבור 98","long":32.65877,"lat":35.579637},
{"city":"יד השמונה","time":90,"region":"בית שמש 189","long":31.80955,"lat":35.089617},
{"city":"גבעת יערים","time":90,"region":"בית שמש 189","long":31.786089,"lat":35.09277},
{"city":"בר גיורא","time":90,"region":"בית שמש 189","long":31.729683,"lat":35.073414},
{"city":"כסלון","time":90,"region":"בית שמש 189","long":31.774262,"lat":35.048171},
{"city":"נטף","time":90,"region":"בית שמש 189","long":31.831276,"lat":35.06957999999999},
{"city":"נווה אילן","time":90,"region":"בית שמש 189","long":31.807585,"lat":35.080922},
{"city":"עין ראפה","time":90,"region":"בית שמש 189","long":31.790605,"lat":35.116514},
{"city":"ידידה","time":90,"region":"בית שמש 189","long":31.812281,"lat":35.104639},
{"city":"נס הרים","time":90,"region":"בית שמש 189","long":31.74419199999999,"lat":35.059406},
{"city":"מטע","time":90,"region":"בית שמש 189","long":31.716522,"lat":35.060571},
{"city":"פסאיל","time":90,"region":"בקעה 132","long":32.025398,"lat":35.444264},
{"city":"גבע בנימין","time":90,"region":"בקעה 133","long":31.849999,"lat":35.273853},
{"city":"תומר","time":90,"region":"בקעה 132","long":32.018587,"lat":35.4398},
{"city":"כוכב השחר","time":90,"region":"בקעה 133","long":31.960264,"lat":35.349421},
{"city":"חמדיה","time":60,"region":"בקעת בית שאן 128","long":32.519773,"lat":35.520568},
{"city":"מגדל תפן","time":30,"region":"גליל עליון 41","long":32.9766793,"lat":35.278017},
{"city":"תל תאומים","time":60,"region":"בקעת בית שאן 128","long":32.442537,"lat":35.496409},
{"city":"נמרוד","time":10,"region":"גולן 1","long":33.244978,"lat":35.750842},
{"city":"כפר חרוב","time":10,"region":"גולן 2","long":32.762357,"lat":35.66418},
{"city":"גיתה","time":30,"region":"גליל עליון 38","long":32.967233,"lat":35.249125},
{"city":"חרשים","time":30,"region":"גליל עליון 43","long":32.957737,"lat":35.328217},
{"city":"חלוץ","time":30,"region":"גליל עליון 43","long":32.951271,"lat":35.311103},
{"city":"שמרת","time":30,"region":"גליל עליון 37","long":32.95148,"lat":35.094955},
{"city":"טובא זנגריה","time":30,"region":"גליל עליון 50","long":32.96621,"lat":35.592018},
{"city":"כרכום","time":30,"region":"גליל עליון 50","long":32.928271,"lat":35.606331},
{"city":"חמדת ימים","time":30,"region":"גליל עליון 44","long":32.948699,"lat":35.42458500000001},
{"city":"כחל","time":60,"region":"גליל תחתון 55 ","long":32.89046500000001,"lat":35.511572},
{"city":"קרית ים","time":60,"region":"הקריות 70","long":32.849276,"lat":35.068929},
{"city":"כפר ביאליק","time":60,"region":"הקריות 70","long":32.821376,"lat":35.087749},
{"city":"אושה","time":60,"region":"הקריות 71","long":32.796458,"lat":35.114584},
{"city":"אפק","time":60,"region":"הקריות 71","long":32.838316,"lat":35.12778},
{"city":"יגור","time":60,"region":"הקריות 71","long":32.741532,"lat":35.076826},
{"city":"כפר הנוער הדתי","time":60,"region":"הקריות 71","long":32.742897,"lat":35.09615},
{"city":"כפר חסידים ב'","time":60,"region":"הקריות 71","long":32.750515,"lat":35.08828099999999},
{"city":"קילקיס","time":90,"region":"יהודה 207","long":31.493685,"lat":35.092627},
{"city":"ענאתא","time":90,"region":"ירושלים 194","long":31.811201,"lat":35.259602},
{"city":"חיזמא","time":90,"region":"ירושלים 194","long":31.836461,"lat":35.263231},
{"city":"בית אורן","time":60,"region":"כרמל 82","long":32.731601,"lat":35.00632},
{"city":"עופר","time":90,"region":"מנשה 102","long":32.621882,"lat":34.983472},
{"city":"אבו עסא","time":90,"region":"נגב 287","long":31.250246,"lat":34.873389},
{"city":"אבו רוקייק","time":90,"region":"נגב 287","long":31.25954,"lat":34.863897},
{"city":"ירוחם","time":90,"region":"נגב 301","long":30.987804,"lat":34.929741},
{"city":"חרב לאת","time":90,"region":"עמק חפר 137","long":32.403526,"lat":34.917146},
{"city":"חרות","time":90,"region":"עמק חפר 139","long":32.240973,"lat":34.914127},
{"city":"חיבת ציון","time":90,"region":"עמק חפר 137","long":32.397995,"lat":34.911931},
{"city":"אייל","time":90,"region":"עמק חפר 139","long":32.210711,"lat":34.978259},
{"city":"גאולים","time":90,"region":"עמק חפר 139","long":32.296487,"lat":34.943862},
{"city":"גבעת חיים מאוחד","time":90,"region":"עמק חפר 137","long":32.392148,"lat":34.929447},
{"city":"כמהין","time":60,"region":"נגב 302","long":30.910327,"lat":34.430725},
{"city":"טללים","time":90,"region":"נגב 302","long":30.991511,"lat":34.771261},
{"city":"אילנות","time":90,"region":"עמק חפר 139","long":32.860816,"lat":35.082655},
{"city":"בורקין","time":90,"region":"שומרון 118","long":32.456135,"lat":35.261688},
{"city":"שקד","time":90,"region":"שומרון 118","long":32.473745,"lat":35.168448},
{"city":"זבאבידה","time":90,"region":"שומרון 119","long":32.385202,"lat":35.323479},
{"city":"עטארה","time":90,"region":"שומרון 119","long":32.00208,"lat":35.206358},
{"city":"תיאסיר","time":90,"region":"שומרון 119","long":32.339402,"lat":35.396266},
{"city":"פנדקומיה","time":90,"region":"שומרון 119","long":32.320869,"lat":35.203948},
{"city":"תלפית","time":90,"region":"שומרון 119","long":32.400872,"lat":35.341609},
{"city":"אלון מורה","time":90,"region":"שומרון 120","long":32.234418,"lat":35.331201},
{"city":"אודלה","time":90,"region":"שומרון 120","long":32.153373,"lat":35.275529},
{"city":"גבעת סנה יעקב","time":90,"region":"שומרון 120","long":32.177917,"lat":35.263443},
{"city":"ראבא","time":90,"region":"שומרון 119","long":32.386823,"lat":35.382663},
{"city":"רמה","time":90,"region":"שומרון 119","long":32.355139,"lat":35.170118},
{"city":"קבאטיה","time":90,"region":"שומרון 119","long":32.409583,"lat":35.280093},
{"city":"פקועה","time":90,"region":"שומרון 119","long":32.490501,"lat":35.400267},
{"city":"שוויכה","time":90,"region":"שומרון 119","long":32.335396,"lat":35.034871},
{"city":"שוויכה","time":90,"region":"שומרון 119","long":31.40259,"lat":35.007054},
{"city":"תנין","time":90,"region":"שומרון 119","long":32.414522,"lat":35.34027},
{"city":"רוג'ייב","time":90,"region":"שומרון 120","long":32.191628,"lat":35.291606},
{"city":"עץ אפרים","time":90,"region":"שומרון 121","long":32.119403,"lat":35.046367},
{"city":"רנתיס","time":90,"region":"שומרון 123","long":32.029973,"lat":35.018973},
{"city":"שבות רחל","time":90,"region":"שומרון 125","long":32.054539,"lat":35.310703},
{"city":"ביר זית","time":90,"region":"שומרון 126","long":31.975314,"lat":35.196042},
{"city":"בית דוקו","time":90,"region":"שומרון 126","long":31.859417,"lat":35.130739},
{"city":"בית חורון","time":90,"region":"שומרון 126","long":31.87989,"lat":35.124097},
{"city":"ביתוניא","time":90,"region":"שומרון 126","long":31.889281,"lat":35.169813},
{"city":"כפר ניעמה","time":90,"region":"שומרון 126","long":31.924437,"lat":35.09692500000001},
{"city":"בילעין","time":90,"region":"שומרון 126","long":31.92851599999999,"lat":35.070954},
{"city":"בית ליקיא","time":90,"region":"שומרון 126","long":31.869937,"lat":35.065202},
{"city":"ספא","time":90,"region":"שומרון 126","long":31.903688,"lat":35.060213},
{"city":"שבתין","time":90,"region":"שומרון 126","long":31.974291,"lat":35.050558},
{"city":"בית אל","time":90,"region":"שומרון 126","long":31.94159999999999,"lat":35.222734},
{"city":"בית איענאן","time":90,"region":"שומרון 126","long":31.851065,"lat":35.111719},
{"city":"בית סירא","time":90,"region":"שומרון 126","long":31.88743,"lat":35.04532},
{"city":"פתח תקווה","time":90,"region":"שפלה 168","long":32.084041,"lat":34.887762},
{"city":"נחשונים","time":90,"region":"שפלה 169","long":32.063236,"lat":34.947011},
{"city":"כרם בן שמן","time":90,"region":"שפלה 179","long":31.958896,"lat":34.934104},
{"city":"לביא","time":60,"region":"תבור 98","long":32.787648,"lat":35.440717},
{"city":"שובה","time":15,"region":"עוטף עזה 225","long":31.44995,"lat":34.545496},
{"city":"ארז","time":15,"region":"עוטף עזה 219","long":31.55984,"lat":34.564889},
{"city":"תושיה","time":15,"region":"עוטף עזה 225","long":31.432895,"lat":34.541314},
{"city":"עמיעוז","time":15,"region":"עוטף עזה 234","long":31.248463,"lat":34.413404},
{"city":"פרי גן","time":15,"region":"עוטף עזה 238","long":31.222015,"lat":34.355936},
{"city":"יבול","time":15,"region":"עוטף עזה 238","long":31.189458,"lat":34.318952},
{"city":"חולית","time":15,"region":"עוטף עזה 236","long":31.230563,"lat":34.32734},
{"city":"אבשלום","time":15,"region":"עוטף עזה 238","long":31.195397,"lat":34.3312},
{"city":"תלמי יוסף","time":15,"region":"עוטף עזה 238","long":31.199958,"lat":34.363751},
{"city":"כרם שלום","time":15,"region":"עוטף עזה 237","long":31.228281,"lat":34.284559},
{"city":"יתד","time":15,"region":"עוטף עזה 238","long":31.207042,"lat":34.326126},
{"city":"ניר יצחק","time":15,"region":"עוטף עזה 236","long":31.23604,"lat":34.356702},
{"city":"סופה","time":15,"region":"עוטף עזה 236","long":31.238309,"lat":34.341987},
{"city":"שדי אברהם","time":15,"region":"עוטף עזה 238","long":31.211594,"lat":34.335692},
{"city":"אחוזת ברק","time":60,"region":"עמק יזרעאל 90","long":32.643101,"lat":35.338893},
{"city":"כפר קדום","time":90,"region":"שומרון 120","long":32.222715,"lat":35.143133},
{"city":"דחי","time":60,"region":"עמק יזרעאל 90","long":32.622491,"lat":35.343604},
{"city":"זובובא","time":90,"region":"שומרון 118","long":32.543645,"lat":35.223939},
{"city":"כפר הס","time":90,"region":"עמק חפר 139","long":32.247721,"lat":34.935137},
{"city":"זיבדה","time":90,"region":"שומרון 118","long":32.449425,"lat":35.131265},
{"city":"גאולים","time":90,"region":"עמק חפר 139","long":32.296487,"lat":34.943862},
{"city":"נהלל","time":60,"region":"עמק יזרעאל 87","long":32.690807,"lat":35.19609},
{"city":"דברת","time":60,"region":"עמק יזרעאל 90","long":32.646729,"lat":35.350085},
{"city":"ערב אל עיסאת","time":60,"region":"עמק יזרעאל 87","long":32.70667,"lat":35.253379},
{"city":"האשימיה","time":90,"region":"שומרון 118","long":32.465214,"lat":35.221276},
{"city":"נוף איילון","time":90,"region":"שפלה 181","long":31.871215,"lat":34.991321},
{"city":"גן חיים","time":90,"region":"שרון 141","long":32.195761,"lat":34.906957},
{"city":"דגניה א'","time":60,"region":"תבור 98","long":32.706938,"lat":35.575062},
{"city":"חורפיש","time":10,"region":"קו העימות 20","long":33.016688,"lat":35.347106},
{"city":"אילנות","time":90,"region":"עמק חפר 139","long":32.860816,"lat":35.082655},
{"city":"פלך","time":30,"region":"גליל עליון 40","long":32.93367,"lat":35.23361},
{"city":"שפר","time":30,"region":"גליל עליון 44","long":32.944553,"lat":35.437848},
{"city":"אליפלט","time":30,"region":"גליל עליון 50","long":32.947834,"lat":35.548516},
{"city":"נוב","time":10,"region":"גולן 2","long":32.832852,"lat":35.783574},
{"city":"חוקוק","time":60,"region":"גליל תחתון 55 ","long":32.878631,"lat":35.496654},
{"city":"שלוחות","time":60,"region":"בקעת בית שאן 128","long":32.472608,"lat":35.480488},
{"city":"גיתה","time":30,"region":"גליל עליון 38","long":32.967233,"lat":35.249125},
{"city":"רמת מגשימים","time":10,"region":"גולן 2","long":32.84406600000001,"lat":35.80658},
{"city":"נאות גולן","time":10,"region":"גולן 2","long":32.787026,"lat":35.693172},
{"city":"בלעא","time":90,"region":"שומרון 119","long":32.332522,"lat":35.109953},
{"city":"ג'למה","time":90,"region":"שומרון 119","long":32.508814,"lat":35.312956},
{"city":"ג'לבון","time":90,"region":"שומרון 119","long":32.459986,"lat":35.414691},
{"city":"ג'בע","time":90,"region":"שומרון 119","long":32.325027,"lat":35.220164},
{"city":"ג'בע","time":90,"region":"שומרון 119","long":31.858314,"lat":35.260775},
{"city":"בית אומרין","time":90,"region":"שומרון 119","long":32.292761,"lat":35.215727},
{"city":"אום דאר","time":90,"region":"שומרון 118","long":32.457529,"lat":35.138167},
{"city":"דיר אבו דעיף","time":90,"region":"שומרון 119","long":32.456061,"lat":35.364922},
{"city":"דנאבה","time":90,"region":"שומרון 119","long":32.31232,"lat":35.04193},
{"city":"שעל","time":15,"region":"קצרין 7","long":33.11653,"lat":35.718816},
{"city":"ח'ירבת בית חסן","time":90,"region":"שומרון 119","long":32.237706,"lat":35.403806},
{"city":"קוסין","time":90,"region":"שומרון 120","long":32.238982,"lat":35.184083},
{"city":"ברוכין","time":90,"region":"שומרון 123","long":32.082231,"lat":35.094113},
{"city":"תל עדשים","time":60,"region":"תבור 95","long":32.657358,"lat":35.302478},
{"city":"עאבה","time":90,"region":"שומרון 119","long":32.458824,"lat":35.323932},
{"city":"משהד","time":60,"region":"תבור 95","long":32.738912,"lat":35.322494},
{"city":"זיבדה","time":90,"region":"שומרון 118","long":32.449425,"lat":35.131265},
{"city":"רבבה","time":90,"region":"שומרון 122","long":32.11871,"lat":35.129583},
{"city":"דיר בלוט","time":90,"region":"שומרון 123","long":32.065033,"lat":35.025549},
{"city":"כפר רות","time":90,"region":"שפלה 181","long":31.910378,"lat":35.035309},
{"city":"נס עמים","time":30,"region":"גליל עליון 37","long":32.965465,"lat":35.121588},
{"city":"בית העמק","time":30,"region":"גליל עליון 37","long":32.970683,"lat":35.144845},
{"city":"רגבה","time":30,"region":"גליל עליון 35","long":32.977493,"lat":35.099129},
{"city":"בוסתן הגליל","time":30,"region":"גליל עליון 37","long":32.948636,"lat":35.08068799999999},
{"city":"עין זיוון","time":10,"region":"גולן 3","long":33.09645,"lat":35.796313},
{"city":"מזרעה","time":30,"region":"גליל עליון 35","long":32.983652,"lat":35.098934},
{"city":"כפר מסריק","time":30,"region":"גליל עליון 37","long":32.891218,"lat":35.098414},
{"city":"קשת","time":10,"region":"גולן 3","long":32.980388,"lat":35.808484},
{"city":"קשת","time":10,"region":"גולן 3","long":32.996038,"lat":35.806587},
{"city":"חברון","time":90,"region":"יהודה 207","long":31.532569,"lat":35.09982600000001},
{"city":"זיף","time":90,"region":"יהודה 207","long":31.478531,"lat":35.140697},
{"city":"ח'רסה","time":90,"region":"יהודה 207","long":31.48269,"lat":35.015788},
{"city":"ח'ירבת זיתא","time":90,"region":"יהודה 207","long":31.559274,"lat":35.123932},
{"city":"ח'ירבת כרמה","time":90,"region":"יהודה 207","long":31.449783,"lat":35.026095},
{"city":"ואדיח","time":90,"region":"יהודה 207","long":31.504589,"lat":35.00485},
{"city":"חגי","time":90,"region":"יהודה 207","long":31.8193708,"lat":34.7864998},
{"city":"חגי","time":90,"region":"יהודה 207","long":31.49253,"lat":35.07953699999999},
{"city":"בסמת טבעון","time":60,"region":"עמק יזרעאל 86","long":32.736287,"lat":35.1532},
{"city":"כפר יונה","time":90,"region":"עמק חפר 150","long":32.317719,"lat":34.933615},
{"city":"שער העמקים","time":60,"region":"עמק יזרעאל 86","long":32.722621,"lat":35.110601},
{"city":"דבורה","time":60,"region":"עמק יזרעאל 93","long":32.552895,"lat":35.263853},
{"city":"כברי","time":10,"region":"קו העימות 30","long":33.020985,"lat":35.147007},
{"city":"פלאמה","time":90,"region":"שומרון 120","long":32.224781,"lat":35.022404},
{"city":"כפר מונש","time":90,"region":"עמק חפר 150","long":32.345607,"lat":34.916426},
{"city":"גבע","time":60,"region":"עמק יזרעאל 93","long":32.56653000000001,"lat":35.37216},
{"city":"אורנים","time":60,"region":"עמק יזרעאל 86","long":32.711324,"lat":35.109875},
{"city":"רמה","time":90,"region":"שומרון 119","long":32.355139,"lat":35.170118},
{"city":"שוויכה","time":90,"region":"שומרון 119","long":32.335396,"lat":35.034871},
{"city":"שוויכה","time":90,"region":"שומרון 119","long":31.40259,"lat":35.007054},
{"city":"עיראק בורין","time":90,"region":"שומרון 120","long":32.202409,"lat":35.239118},
{"city":"גילון","time":30,"region":"גליל עליון 42","long":32.904338,"lat":35.232191},
{"city":"לבון","time":30,"region":"גליל עליון 42","long":32.94118,"lat":35.286475},
{"city":"נחף","time":30,"region":"גליל עליון 42","long":32.934675,"lat":35.31652},
{"city":"צורית","time":30,"region":"גליל עליון 42","long":32.902351,"lat":35.249106},
{"city":"סאג'ור","time":30,"region":"גליל עליון 42","long":32.943109,"lat":35.343616},
{"city":"כרמיאל","time":30,"region":"גליל עליון 42","long":32.914671,"lat":35.292417},
{"city":"מרכז אזורי מרום הגליל","time":30,"region":"גליל עליון 44","long":33.000651,"lat":35.438202},
{"city":"ספסופה","time":30,"region":"גליל עליון 46","long":33.013123,"lat":35.440171},
{"city":"גדות","time":30,"region":"גליל עליון 47","long":33.018208,"lat":35.619547},
{"city":"שפר","time":30,"region":"גליל עליון 44","long":32.944553,"lat":35.437848},
{"city":"יסוד המעלה","time":30,"region":"גליל עליון 47","long":33.05358,"lat":35.589013},
{"city":"חולתה","time":30,"region":"גליל עליון 47","long":33.052851,"lat":35.609244},
{"city":"איילת השחר","time":30,"region":"גליל עליון 47","long":33.021115,"lat":35.576732},
{"city":"פרוד","time":30,"region":"גליל עליון 44","long":32.933066,"lat":35.434318},
{"city":"עין כמונים","time":30,"region":"גליל עליון 44","long":32.919813,"lat":35.431325},
{"city":"צפריה","time":90,"region":"שפלה 174","long":32.004315,"lat":34.854664},
{"city":"כובר","time":90,"region":"שומרון 124","long":31.989948,"lat":35.158443},
{"city":"בורהאם","time":90,"region":"שומרון 124","long":31.988478,"lat":35.175441},
{"city":"באר יעקב","time":90,"region":"שפלה 178","long":31.943507,"lat":34.83904},
{"city":"כפר טרומן","time":90,"region":"שפלה 174","long":31.980493,"lat":34.927696},
{"city":"ישרש","time":90,"region":"שפלה 178","long":31.915667,"lat":34.847337},
{"city":"נטעים","time":90,"region":"שפלה 175","long":31.945689,"lat":34.775145},
{"city":"גן שורק","time":90,"region":"שפלה 175","long":31.944011,"lat":34.758322},
{"city":"שבות רחל","time":90,"region":"שומרון 125","long":32.054539,"lat":35.310703},
{"city":"פלמחים","time":90,"region":"שפלה 175","long":31.932705,"lat":34.706874},
{"city":"משמר השבעה","time":90,"region":"שפלה 174","long":32.010891,"lat":34.822337},
{"city":"ראשון לציון","time":90,"region":"שפלה 175","long":31.9704266,"lat":34.7929641},
{"city":"בורקה","time":90,"region":"שומרון 126","long":31.896059,"lat":35.254768},
{"city":"בורקה","time":90,"region":"שומרון 126","long":32.301365,"lat":35.192933},
{"city":"בית רימא","time":90,"region":"שומרון 124","long":32.032333,"lat":35.103293},
{"city":"דיר ע'סאנה","time":90,"region":"שומרון 124","long":32.046374,"lat":35.098124},
{"city":"קבלאן","time":90,"region":"שומרון 125","long":32.10182,"lat":35.287729},
{"city":"אבו קש","time":90,"region":"שומרון 126","long":31.950733,"lat":35.184719},
{"city":"עינת","time":90,"region":"שפלה 170","long":32.081948,"lat":34.937514},
{"city":"צפת","time":30,"region":"גליל עליון 49","long":32.964648,"lat":35.495997},
{"city":"שדה אליעזר","time":30,"region":"גליל עליון 47","long":33.04647,"lat":35.56525},
{"city":"אמנון","time":30,"region":"גליל עליון 50","long":32.904989,"lat":35.571136},
{"city":"אלמגור","time":30,"region":"גליל עליון 50","long":32.912709,"lat":35.60231},
{"city":"טובא זנגריה","time":30,"region":"גליל עליון 50","long":32.96621,"lat":35.592018},
{"city":"ביריה","time":30,"region":"גליל עליון 49","long":32.978108,"lat":35.503096},
{"city":"ורד הגליל","time":30,"region":"גליל עליון 50","long":32.904818,"lat":35.549701},
{"city":"אליפלט","time":30,"region":"גליל עליון 50","long":32.947834,"lat":35.548516},
{"city":"חצור הגלילית","time":30,"region":"גליל עליון 50","long":32.980382,"lat":35.543548},
{"city":"כורזים","time":30,"region":"גליל עליון 50","long":32.911112,"lat":35.55015},
{"city":"כורזים","time":30,"region":"גליל עליון 50","long":32.911389,"lat":35.563889},
{"city":"סמוע","time":90,"region":"יהודה 207","long":31.39861,"lat":35.065288},
{"city":"קילקיס","time":90,"region":"יהודה 207","long":31.493685,"lat":35.092627},
{"city":"עווד","time":90,"region":"יהודה 207","long":31.512436,"lat":35.011952},
{"city":"פוקיקיס","time":90,"region":"יהודה 207","long":31.488847,"lat":34.983393},
{"city":"עוזיז","time":90,"region":"יהודה 207","long":31.429307,"lat":35.081549},
{"city":"עבדה","time":90,"region":"יהודה 207","long":31.466523,"lat":35.011177},
{"city":"פני חבר","time":90,"region":"יהודה 207","long":31.487074,"lat":35.1651},
{"city":"קוואעין","time":90,"region":"יהודה 207","long":31.323303,"lat":35.026031},
{"city":"אחוזת ברק","time":60,"region":"עמק יזרעאל 90","long":32.643101,"lat":35.338893},
{"city":"עמיר","time":10,"region":"קו העימות 25","long":33.17772610000001,"lat":35.6198305},
{"city":"שמיר","time":10,"region":"קו העימות 25","long":33.166754,"lat":35.659949},
{"city":"מרחביה קיבוץ","time":60,"region":"עמק יזרעאל 90","long":32.605823,"lat":35.307384},
{"city":"נאעורה","time":60,"region":"עמק יזרעאל 90","long":32.61468,"lat":35.391133},
{"city":"נאות סמדר","time":180,"region":"ערבה 310","long":30.049079,"lat":35.028106},
{"city":"בית הלל","time":10,"region":"קו העימות 26","long":33.208782,"lat":35.606515},
{"city":"עין עריכ","time":90,"region":"שומרון 126","long":31.907267,"lat":35.14305},
{"city":"טבריה","time":60,"region":"גליל תחתון 56 ","long":32.795859,"lat":35.530973},
{"city":"טפחות","time":60,"region":"גליל תחתון 57","long":32.868562,"lat":35.422204},
{"city":"כלנית","time":60,"region":"גליל תחתון 57","long":32.875328,"lat":35.453972},
{"city":"מסד","time":60,"region":"גליל תחתון 57","long":32.844172,"lat":35.423166},
{"city":"מצפה","time":60,"region":"גליל תחתון 56 ","long":32.789973,"lat":35.507851},
{"city":"כפר חנניה","time":60,"region":"גליל תחתון 57","long":32.915993,"lat":35.423785},
{"city":"מצפה נטופה","time":60,"region":"גליל תחתון 57","long":32.801748,"lat":35.383501},
{"city":"עיילבון","time":60,"region":"גליל תחתון 57","long":32.837949,"lat":35.399996},
{"city":"בני נעים","time":90,"region":"יהודה 207","long":31.514866,"lat":35.16534},
{"city":"אפיניש","time":90,"region":"יהודה 207","long":31.316183,"lat":34.996386},
{"city":"בית עינון","time":90,"region":"יהודה 207","long":31.564738,"lat":35.128303},
{"city":"בית עמרה","time":90,"region":"יהודה 207","long":31.447734,"lat":35.053087},
{"city":"דורא","time":90,"region":"יהודה 207","long":31.505093,"lat":35.027527},
{"city":"סלפית","time":90,"region":"שומרון 122","long":32.085094,"lat":35.180832},
{"city":"שערי תקווה","time":90,"region":"שומרון 121","long":32.120679,"lat":35.026998},
{"city":"מרדה","time":90,"region":"שומרון 122","long":32.114217,"lat":35.195851},
{"city":"צופין","time":90,"region":"שומרון 121","long":32.197318,"lat":35.008912},
{"city":"חארס","time":90,"region":"שומרון 122","long":32.113415,"lat":35.143716},
{"city":"עזון","time":90,"region":"שומרון 121","long":32.177101,"lat":35.055957},
{"city":"תורמוס עייא","time":90,"region":"שומרון 125","long":32.032726,"lat":35.28837499999999},
{"city":"אריאל","time":90,"region":"שומרון 122","long":32.104637,"lat":35.17451399999999},
{"city":"גינתון","time":90,"region":"שפלה 179","long":31.962801,"lat":34.913062},
{"city":"אחיסמך","time":90,"region":"שפלה 179","long":31.931906,"lat":34.908576},
{"city":"לוטם","time":60,"region":"גליל תחתון 60","long":32.880858,"lat":35.35996},
{"city":"מורן","time":60,"region":"גליל תחתון 60","long":32.921637,"lat":35.39481},
{"city":"צביה","time":60,"region":"גליל תחתון 60","long":32.889006,"lat":35.330599},
{"city":"מכמנים","time":60,"region":"גליל תחתון 60","long":32.905865,"lat":35.32899099999999},
{"city":"עראבה","time":60,"region":"גליל תחתון 60","long":32.853705,"lat":35.337167},
{"city":"סח'נין","time":60,"region":"גליל תחתון 60","long":32.864167,"lat":35.294547},
{"city":"סלמה","time":60,"region":"גליל תחתון 60","long":32.893248,"lat":35.370499},
{"city":"משמר העמק","time":90,"region":"מנשה 103","long":32.610063,"lat":35.14267299999999},
{"city":"עין העמק","time":90,"region":"מנשה 103","long":32.629664,"lat":35.082246},
{"city":"עין השופט","time":90,"region":"מנשה 103","long":32.596811,"lat":35.100445},
{"city":"אביאל","time":90,"region":"מנשה 104","long":32.531346,"lat":34.993493},
{"city":"רמת השופט","time":90,"region":"מנשה 103","long":32.609356,"lat":35.094079},
{"city":"בנימינה גבעת עדה","time":90,"region":"מנשה 104","long":32.517078,"lat":34.955096},
{"city":"רמות מנשה","time":90,"region":"מנשה 103","long":32.597042,"lat":35.057177},
{"city":"אלוני יצחק","time":90,"region":"מנשה 104","long":32.509997,"lat":35.00519999999999},
{"city":"ג'סר א זרקא","time":90,"region":"מנשה 104","long":32.536262,"lat":34.911569},
{"city":"בית חנניה","time":90,"region":"מנשה 104","long":32.529504,"lat":34.926734},
{"city":"עוורתא","time":90,"region":"שומרון 120","long":32.161522,"lat":35.28638000000001},
{"city":"דמיידה","time":60,"region":"גליל תחתון 63 ","long":32.8149647,"lat":35.2265642},
{"city":"אעבלין","time":60,"region":"גליל תחתון 63 ","long":32.821799,"lat":35.19012},
{"city":"טמרה","time":60,"region":"גליל תחתון 63 ","long":32.852247,"lat":35.201315},
{"city":"יובלים","time":60,"region":"גליל תחתון 63 ","long":32.878163,"lat":35.269294},
{"city":"יבור","time":60,"region":"גליל תחתון 63 ","long":32.897317,"lat":35.175737},
{"city":"ח'ואלד","time":60,"region":"גליל תחתון 63 ","long":32.758894,"lat":35.15837399999999},
{"city":"חנתון","time":60,"region":"גליל תחתון 63 ","long":32.783051,"lat":35.245063},
{"city":"אתגר","time":60,"region":"גליל תחתון 63 ","long":32.859351,"lat":35.256072},
{"city":"הרדוף","time":60,"region":"גליל תחתון 63 ","long":32.763717,"lat":35.174663},
{"city":"טירה","time":90,"region":"עמק חפר 139","long":32.235466,"lat":34.950506},
{"city":"טירה","time":90,"region":"עמק חפר 139","long":31.869948,"lat":35.125587},
{"city":"כוכב יאיר","time":90,"region":"עמק חפר 139","long":32.220922,"lat":34.992405},
{"city":"טייבה","time":90,"region":"עמק חפר 139","long":32.266892,"lat":35.009675},
{"city":"גאולים","time":90,"region":"עמק חפר 139","long":32.296487,"lat":34.943862},
{"city":"יעף","time":90,"region":"עמק חפר 139","long":32.268254,"lat":34.967425},
{"city":"חרות","time":90,"region":"עמק חפר 139","long":32.240973,"lat":34.914127},
{"city":"אייל","time":90,"region":"עמק חפר 139","long":32.210711,"lat":34.978259},
{"city":"בני דרור","time":90,"region":"עמק חפר 139","long":32.261795,"lat":34.901791},
{"city":"אילנות","time":90,"region":"עמק חפר 139","long":32.860816,"lat":35.082655},
{"city":"ערקה","time":90,"region":"שומרון 118","long":32.471414,"lat":35.199766},
{"city":"עץ אפרים","time":90,"region":"שומרון 121","long":32.119403,"lat":35.046367},
{"city":"עזון","time":90,"region":"שומרון 121","long":32.177101,"lat":35.055957},
{"city":"כופיר","time":90,"region":"שומרון 119","long":32.371729,"lat":35.341252},
{"city":"סרטא","time":90,"region":"שומרון 121","long":32.103335,"lat":35.091838},
{"city":"עטרת","time":90,"region":"שומרון 124","long":32.001207,"lat":35.176982},
{"city":"ח'ירבת עסלה","time":90,"region":"שומרון 121","long":32.17183,"lat":35.032959},
{"city":"צופין","time":90,"region":"שומרון 121","long":32.197318,"lat":35.008912},
{"city":"קלקיליה","time":90,"region":"שומרון 121","long":32.196015,"lat":34.981513},
{"city":"נצר חזני","time":90,"region":"שפלה 184","long":31.8214,"lat":34.862554},
{"city":"בית נחמיה","time":90,"region":"שפלה 173","long":31.977142,"lat":34.953835},
{"city":"טירת יהודה","time":90,"region":"שפלה 173","long":32.014833,"lat":34.935878},
{"city":"ברקת","time":90,"region":"שפלה 173","long":32.018344,"lat":34.943179},
{"city":"יבנאל","time":60,"region":"תבור 98","long":32.708765,"lat":35.503778},
{"city":"שוהם","time":90,"region":"שפלה 173","long":31.9957581,"lat":34.9488403},
{"city":"משמר איילון","time":90,"region":"שפלה 184","long":31.872478,"lat":34.943253},
{"city":"כפר שמריהו","time":90,"region":"דן 155","long":32.187123,"lat":34.823124},
{"city":"רמת השרון","time":90,"region":"דן 155","long":32.137793,"lat":34.840278},
{"city":"תל אביב יפו","time":90,"region":"דן 157","long":32.0852999,"lat":34.78176759999999},
{"city":"גליל ים","time":90,"region":"דן 155","long":32.158797,"lat":34.831876},
{"city":"הרצליה","time":90,"region":"דן 155","long":32.162413,"lat":34.844675},
{"city":"בני ברק","time":90,"region":"דן 160","long":32.084932,"lat":34.835226},
{"city":"גבעת שמואל","time":90,"region":"דן 160","long":32.077299,"lat":34.849206},
{"city":"גבעתיים","time":90,"region":"דן 160","long":32.072176,"lat":34.808871},
{"city":"חוות שלם","time":90,"region":"דן 160","long":32.039601,"lat":34.822714},
{"city":"דנאבה","time":90,"region":"שומרון 119","long":32.31232,"lat":35.04193},
{"city":"דיר ע'זאלה","time":90,"region":"שומרון 119","long":32.495505,"lat":35.351854},
{"city":"טובאס","time":90,"region":"שומרון 119","long":32.321086,"lat":35.369953},
{"city":"באקה","time":90,"region":"שומרון 120","long":32.206651,"lat":35.115086},
{"city":"אבני חפץ","time":90,"region":"שומרון 120","long":32.284628,"lat":35.074551},
{"city":"בית דג'ן","time":90,"region":"שומרון 120","long":32.193122,"lat":35.372773},
{"city":"בית איבא","time":90,"region":"שומרון 120","long":32.240059,"lat":35.212557},
{"city":"זבאבידה","time":90,"region":"שומרון 119","long":32.385202,"lat":35.323479},
{"city":"ח'ירבת בית חסן","time":90,"region":"שומרון 119","long":32.237706,"lat":35.403806},
{"city":"עיראק בורין","time":90,"region":"שומרון 120","long":32.202409,"lat":35.239118},
{"city":"בת ים","time":90,"region":"דן 162","long":32.013186,"lat":34.748019},
{"city":"אזור","time":90,"region":"דן 162","long":32.029558,"lat":34.799648},
{"city":"חולון","time":90,"region":"דן 162","long":32.015833,"lat":34.787384},
{"city":"קרית אונו","time":90,"region":"דן 161","long":32.054863,"lat":34.85885800000001},
{"city":"כפר ביאליק","time":60,"region":"הקריות 70","long":32.821376,"lat":35.087749},
{"city":"שדה ורבורג","time":90,"region":"עמק חפר 139","long":32.208691,"lat":34.90325},
{"city":"אחיטוב","time":90,"region":"עמק חפר 149","long":32.387701,"lat":34.990826},
{"city":"קלנסווה","time":90,"region":"עמק חפר 139","long":32.285791,"lat":34.981487},
{"city":"תל מונד","time":90,"region":"עמק חפר 139","long":32.256608,"lat":34.91846},
{"city":"שער אפרים","time":90,"region":"עמק חפר 139","long":32.290662,"lat":34.999448},
{"city":"אומץ","time":90,"region":"עמק חפר 149","long":32.369216,"lat":34.993129},
{"city":"בחן","time":90,"region":"עמק חפר 149","long":32.351831,"lat":35.018542},
{"city":"ראס כרכר","time":90,"region":"שומרון 126","long":31.942694,"lat":35.103905},
{"city":"כרמי יוסף","time":90,"region":"שפלה 184","long":31.848024,"lat":34.921347},
{"city":"בית איג'זא","time":90,"region":"שומרון 127","long":31.847577,"lat":35.152859},
{"city":"קלנדיה","time":90,"region":"שומרון 126","long":31.861597,"lat":35.207914},
{"city":"קיביא","time":90,"region":"שומרון 126","long":31.97868099999999,"lat":35.012721},
{"city":"רמלה","time":90,"region":"שפלה 178","long":31.931566,"lat":34.872938},
{"city":"משמר איילון","time":90,"region":"שפלה 184","long":31.872478,"lat":34.943253},
{"city":"שדי חמד","time":90,"region":"שרון 143","long":32.158488,"lat":34.9428062},
{"city":"צפריה","time":90,"region":"שפלה 174","long":32.004315,"lat":34.854664},
{"city":"קרית אתא","time":60,"region":"הקריות 71","long":32.809144,"lat":35.119773},
{"city":"כפר חסידים ב'","time":60,"region":"הקריות 71","long":32.750515,"lat":35.08828099999999},
{"city":"כפר גלים","time":60,"region":"חיפה 75","long":32.76615,"lat":34.959511},
{"city":"רומיחאת","time":60,"region":"הקריות 71","long":32.769928,"lat":35.121611},
{"city":"חיפה","time":60,"region":"חיפה 75","long":32.7940463,"lat":34.989571},
{"city":"רכסים","time":60,"region":"הקריות 71","long":32.749265,"lat":35.099581},
{"city":"טירת כרמל","time":60,"region":"חיפה 75","long":32.762127,"lat":34.97298},
{"city":"החותרים","time":60,"region":"חיפה 75","long":32.752311,"lat":34.957545},
{"city":"רמת יוחנן","time":60,"region":"הקריות 71","long":32.793457,"lat":35.122208},
{"city":"שמשית","time":60,"region":"עמק יזרעאל 87","long":32.732527,"lat":35.246518},
{"city":"רמת ישי","time":60,"region":"עמק יזרעאל 87","long":32.704029,"lat":35.166003},
{"city":"רמת דוד","time":60,"region":"עמק יזרעאל 87","long":32.678991,"lat":35.20403599999999},
{"city":"נהלל","time":60,"region":"עמק יזרעאל 87","long":32.690807,"lat":35.19609},
{"city":"תמרת","time":60,"region":"עמק יזרעאל 87","long":32.703801,"lat":35.225489},
{"city":"שריד","time":60,"region":"עמק יזרעאל 87","long":32.663059,"lat":35.224755},
{"city":"ערב אל עיסאת","time":60,"region":"עמק יזרעאל 87","long":32.70667,"lat":35.253379},
{"city":"עילוט","time":60,"region":"עמק יזרעאל 87","long":32.717249,"lat":35.261482},
{"city":"שדה יעקב","time":60,"region":"עמק יזרעאל 87","long":32.69756,"lat":35.141315},
{"city":"נווה יער","time":60,"region":"עמק יזרעאל 87","long":32.707219,"lat":35.179287},
{"city":"אבו נוג'ים","time":90,"region":"יהודה 200","long":31.66192,"lat":35.199291},
{"city":"אום סלמונה","time":90,"region":"יהודה 200","long":31.645665,"lat":35.165229},
{"city":"אום עסלה","time":90,"region":"יהודה 200","long":31.699141,"lat":35.281913},
{"city":"בד פלוח","time":90,"region":"יהודה 200","long":31.669249,"lat":35.219529},
{"city":"אספר","time":90,"region":"יהודה 200","long":31.586152,"lat":35.187594},
{"city":"אספר","time":90,"region":"יהודה 200","long":31.586152,"lat":35.187594},
{"city":"ארטאס","time":90,"region":"יהודה 200","long":31.689957,"lat":35.188236},
{"city":"יעבד","time":90,"region":"שומרון 118","long":32.446834,"lat":35.167274},
{"city":"קפין","time":90,"region":"שומרון 118","long":32.433378,"lat":35.0843},
{"city":"עין יעקב","time":10,"region":"קו העימות 31","long":33.009312,"lat":35.229024},
{"city":"געתון","time":10,"region":"קו העימות 31","long":33.006075,"lat":35.213831},
{"city":"כפר לאקף","time":90,"region":"שומרון 121","long":32.182406,"lat":35.090541},
{"city":"גבעת השלושה","time":90,"region":"שפלה 168","long":32.09634,"lat":34.920628},
{"city":"חוות גלעד","time":90,"region":"שומרון 120","long":32.199627,"lat":35.181436},
{"city":"אודים","time":90,"region":"שרון 142","long":32.266865,"lat":34.846995},
{"city":"ג'בע","time":90,"region":"שומרון 119","long":32.325027,"lat":35.220164},
{"city":"ג'בע","time":90,"region":"שומרון 119","long":31.858314,"lat":35.260775},
{"city":"עמוריה","time":90,"region":"שומרון 124","long":32.063983,"lat":35.210473},
{"city":"גבעת ברנר","time":90,"region":"שפלה 182","long":31.86661,"lat":34.802254},
{"city":"בית חורון","time":90,"region":"שומרון 126","long":31.87989,"lat":35.124097},
{"city":"ג'אניה","time":90,"region":"שומרון 126","long":31.938419,"lat":35.123984},
{"city":"זעתרה","time":90,"region":"יהודה 200","long":31.674444,"lat":35.255091},
{"city":"מצד שמעון","time":90,"region":"יהודה 200","long":31.601868,"lat":35.196727},
{"city":"מראח רבאח","time":90,"region":"יהודה 200","long":31.633423,"lat":35.186779},
{"city":"מעסרה","time":90,"region":"יהודה 200","long":31.658258,"lat":35.189953},
{"city":"מעלה עמוס","time":90,"region":"יהודה 200","long":31.596887,"lat":35.22936500000001},
{"city":"ח'רזאן","time":90,"region":"יהודה 200","long":31.733554,"lat":35.269247},
{"city":"חרמלה","time":90,"region":"יהודה 200","long":31.661915,"lat":35.220085},
{"city":"מיניה","time":90,"region":"יהודה 200","long":31.624313,"lat":35.215888},
{"city":"כפר אלדד","time":90,"region":"יהודה 200","long":31.653953,"lat":35.250995},
{"city":"חוג'ילה","time":90,"region":"יהודה 200","long":31.709459,"lat":35.253381},
{"city":"נין","time":60,"region":"עמק יזרעאל 90","long":32.630986,"lat":35.349399},
{"city":"סולם שונם","time":60,"region":"עמק יזרעאל 90","long":32.606278,"lat":35.33352199999999},
{"city":"עין חרוד מאוחד","time":60,"region":"עמק יזרעאל 90","long":32.556806,"lat":35.392995},
{"city":"אדירים","time":60,"region":"עמק יזרעאל 93","long":32.54894100000001,"lat":35.271637},
{"city":"ברק","time":60,"region":"עמק יזרעאל 93","long":32.542821,"lat":35.265291},
{"city":"דיר בלוט","time":90,"region":"שומרון 123","long":32.065033,"lat":35.025549},
{"city":"פדואל","time":90,"region":"שומרון 123","long":32.062479,"lat":35.052619},
{"city":"ערורה","time":90,"region":"שומרון 124","long":32.040709,"lat":35.17387799999999},
{"city":"דיר ניזאם","time":90,"region":"שומרון 124","long":32.002823,"lat":35.113728},
{"city":"בורוקין","time":90,"region":"שומרון 124","long":32.072613,"lat":35.098406},
{"city":"ג'יביא","time":90,"region":"שומרון 124","long":31.99713999999999,"lat":35.161111},
{"city":"עטרת","time":90,"region":"שומרון 124","long":32.001207,"lat":35.176982},
{"city":"דיר ג'ריר","time":90,"region":"שומרון 125","long":31.965612,"lat":35.293776},
{"city":"מודיעין מכבים רעות","time":90,"region":"שפלה 181","long":31.890267,"lat":35.010397},
{"city":"נצרת","time":60,"region":"תבור 95","long":32.699635,"lat":35.303546},
{"city":"אלון שבות","time":90,"region":"יהודה 206","long":31.654871,"lat":35.125256},
{"city":"אלעזר","time":90,"region":"יהודה 206","long":31.659676,"lat":35.143074},
{"city":"בית אומר","time":90,"region":"יהודה 206","long":31.622812,"lat":35.102199},
{"city":"בית כאחיל","time":90,"region":"יהודה 206","long":31.57054699999999,"lat":35.068931},
{"city":"אלון שבות","time":90,"region":"יהודה 206","long":31.654871,"lat":35.125256},
{"city":"בית סכריא","time":90,"region":"יהודה 206","long":31.662876,"lat":35.123008},
{"city":"ביתר עילית","time":90,"region":"יהודה 206","long":31.7010023,"lat":35.1119254},
{"city":"בת עין","time":90,"region":"יהודה 206","long":31.657653,"lat":35.101101},
{"city":"בית פג'אר","time":90,"region":"יהודה 206","long":31.621526,"lat":35.155036},
{"city":"ניר יפה","time":60,"region":"עמק יזרעאל 93","long":32.568982,"lat":35.244896},
{"city":"חצבה","time":180,"region":"ערבה 310","long":30.767942,"lat":35.278498},
{"city":"פרזון","time":60,"region":"עמק יזרעאל 93","long":32.545456,"lat":35.311114},
{"city":"תל יוסף","time":60,"region":"עמק יזרעאל 93","long":32.556704,"lat":35.398914},
{"city":"אליפז","time":180,"region":"ערבה 310","long":29.79624799999999,"lat":35.012094},
{"city":"באר אורה","time":180,"region":"ערבה 310","long":29.710166,"lat":34.987218},
{"city":"רמת צבי","time":60,"region":"עמק יזרעאל 93","long":32.591962,"lat":35.414497},
{"city":"רם און","time":60,"region":"עמק יזרעאל 93","long":32.528742,"lat":35.258657},
{"city":"שיטים","time":180,"region":"ערבה 308","long":30.176442,"lat":35.016722},
{"city":"דיר שרף","time":90,"region":"שומרון 120","long":32.254578,"lat":35.191041},
{"city":"כפר סור","time":90,"region":"שומרון 120","long":32.244032,"lat":35.064616},
{"city":"כפר ת'ולת","time":90,"region":"שומרון 121","long":32.152799,"lat":35.04529},
{"city":"כפר ג'מאל","time":90,"region":"שומרון 120","long":32.226102,"lat":35.047203},
{"city":"ח'ירבת עסלה","time":90,"region":"שומרון 121","long":32.17183,"lat":35.032959},
{"city":"כפר קדום","time":90,"region":"שומרון 120","long":32.222715,"lat":35.143133},
{"city":"כפר לאקף","time":90,"region":"שומרון 121","long":32.182406,"lat":35.090541},
{"city":"קריות","time":90,"region":"שומרון 125","long":32.070084,"lat":35.29528},
{"city":"ראש צורים","time":90,"region":"יהודה 206","long":31.66779099999999,"lat":35.125288},
{"city":"סוריף","time":90,"region":"יהודה 206","long":31.649552,"lat":35.064712},
{"city":"נחאלין","time":90,"region":"יהודה 206","long":31.685608,"lat":35.12036200000001},
{"city":"סיעיר","time":90,"region":"יהודה 206","long":31.582455,"lat":35.143776},
{"city":"עבדאללה איברהים","time":90,"region":"יהודה 206","long":31.664956,"lat":35.166735},
{"city":"אדורה","time":90,"region":"יהודה 207","long":31.552219,"lat":35.017634},
{"city":"עלי זהב","time":90,"region":"שומרון 123","long":32.072227,"lat":35.064135},
{"city":"רנתיס","time":90,"region":"שומרון 123","long":32.029973,"lat":35.018973},
{"city":"בלפוריה","time":60,"region":"תבור 95","long":32.629988,"lat":35.296281},
{"city":"גני יוחנן","time":90,"region":"שפלה 184","long":31.859924,"lat":34.840827},
{"city":"ברקת","time":90,"region":"שפלה 173","long":32.018344,"lat":34.943179},
{"city":"קוסרה","time":90,"region":"שומרון 125","long":32.084575,"lat":35.330037},
{"city":"בית עריף","time":90,"region":"שפלה 173","long":31.995352,"lat":34.935103},
{"city":"ביר זית","time":90,"region":"שומרון 126","long":31.975314,"lat":35.196042},
{"city":"רמון","time":90,"region":"שומרון 125","long":31.927317,"lat":35.299468},
{"city":"רמון","time":90,"region":"שומרון 125","long":30.77611109999999,"lat":34.6666667},
{"city":"תורמוס עייא","time":90,"region":"שומרון 125","long":32.032726,"lat":35.28837499999999},
{"city":"בילעין","time":90,"region":"שומרון 126","long":31.92851599999999,"lat":35.070954},
{"city":"שבות רחל","time":90,"region":"שומרון 125","long":32.054539,"lat":35.310703},
{"city":"אבו קש","time":90,"region":"שומרון 126","long":31.950733,"lat":35.184719},
{"city":"אבו שח'ידם","time":90,"region":"שומרון 126","long":31.966531,"lat":35.170814},
{"city":"תלפית במרכז השומרון","time":90,"region":"שומרון 125","long":32.087297,"lat":35.291506},
{"city":"שילה","time":90,"region":"שומרון 125","long":32.054405,"lat":35.29909},
{"city":"סילואד","time":90,"region":"שומרון 125","long":31.97939,"lat":35.261865},
{"city":"טירת יהודה","time":90,"region":"שפלה 173","long":32.014833,"lat":34.935878},
{"city":"חדיד","time":90,"region":"שפלה 173","long":31.969429,"lat":34.932156},
{"city":"בית דגן","time":90,"region":"שפלה 174","long":32.0017816,"lat":34.8297087},
{"city":"קריות","time":90,"region":"שומרון 125","long":32.070084,"lat":35.29528},
{"city":"הושעיה","time":60,"region":"תבור 95","long":32.757927,"lat":35.29522499999999},
{"city":"ח'ירבת כרמה","time":90,"region":"יהודה 207","long":31.449783,"lat":35.026095},
{"city":"זיף","time":90,"region":"יהודה 207","long":31.478531,"lat":35.140697},
{"city":"ואדיח","time":90,"region":"יהודה 207","long":31.504589,"lat":35.00485},
{"city":"ח'רסה","time":90,"region":"יהודה 207","long":31.48269,"lat":35.015788},
{"city":"ח'ירבת זיתא","time":90,"region":"יהודה 207","long":31.559274,"lat":35.123932},
{"city":"חגי","time":90,"region":"יהודה 207","long":31.8193708,"lat":34.7864998},
{"city":"חגי","time":90,"region":"יהודה 207","long":31.49253,"lat":35.07953699999999},
{"city":"סאוויה","time":90,"region":"שומרון 124","long":32.085165,"lat":35.256761},
{"city":"דיר ג'ריר","time":90,"region":"שומרון 125","long":31.965612,"lat":35.293776},
{"city":"בת חן","time":90,"region":"שרון 138","long":32.360194,"lat":34.872388},
{"city":"אביחיל","time":90,"region":"שרון 138","long":32.350708,"lat":34.871229},
{"city":"גנות הדר","time":90,"region":"שרון 138","long":32.32174,"lat":34.900715},
{"city":"חבצלת השרון","time":90,"region":"שרון 138","long":32.3604,"lat":34.861819},
{"city":"מוח'מאס","time":90,"region":"שומרון 125","long":31.87113,"lat":35.277797},
{"city":"כפר מאליכ","time":90,"region":"שומרון 125","long":31.990202,"lat":35.310221},
{"city":"מגדלים","time":90,"region":"שומרון 125","long":32.089866,"lat":35.342633},
{"city":"דיר דיבוואן","time":90,"region":"שומרון 125","long":31.911205,"lat":35.268988},
{"city":"סילואד","time":90,"region":"שומרון 125","long":31.97939,"lat":35.261865},
{"city":"עלי","time":90,"region":"שומרון 125","long":32.071177,"lat":35.266859},
{"city":"יתמא","time":90,"region":"שומרון 125","long":32.107747,"lat":35.268147},
{"city":"ח'ירבת אבו פלאח","time":90,"region":"שומרון 125","long":32.013631,"lat":35.302612},
{"city":"עווד","time":90,"region":"יהודה 207","long":31.512436,"lat":35.011952},
{"city":"פוקיקיס","time":90,"region":"יהודה 207","long":31.488847,"lat":34.983393},
{"city":"עבדה","time":90,"region":"יהודה 207","long":31.466523,"lat":35.011177},
{"city":"פני חבר","time":90,"region":"יהודה 207","long":31.487074,"lat":35.1651},
{"city":"סוסיה","time":90,"region":"יהודה 207","long":31.391051,"lat":35.110978},
{"city":"סמוע","time":90,"region":"יהודה 207","long":31.39861,"lat":35.065288},
{"city":"סימיא","time":90,"region":"יהודה 207","long":31.421629,"lat":35.033465},
{"city":"עוזיז","time":90,"region":"יהודה 207","long":31.429307,"lat":35.081549},
{"city":"חיננית","time":90,"region":"שומרון 118","long":32.480891,"lat":35.173181},
{"city":"כופיראת","time":90,"region":"שומרון 118","long":32.443583,"lat":35.203163},
{"city":"כפר דאן","time":90,"region":"שומרון 118","long":32.477977,"lat":35.253787},
{"city":"יאמון","time":90,"region":"שומרון 118","long":32.486677,"lat":35.233592},
{"city":"יעבד","time":90,"region":"שומרון 118","long":32.446834,"lat":35.167274},
{"city":"חרמש","time":90,"region":"שומרון 118","long":32.423726,"lat":35.118993},
{"city":"כפר קוד","time":90,"region":"שומרון 118","long":32.457509,"lat":35.227727},
{"city":"סורדה","time":90,"region":"שומרון 126","long":31.941752,"lat":35.20318},
{"city":"תל יצחק","time":90,"region":"שרון 142","long":32.252745,"lat":34.872378},
{"city":"ורדים מוסד חינוכי","time":90,"region":"שרון 142","long":32.218787,"lat":34.856058},
{"city":"אבן יהודה","time":90,"region":"שרון 142","long":32.276648,"lat":34.885087},
{"city":"חרוצים","time":90,"region":"שרון 142","long":32.22771,"lat":34.86477199999999},
{"city":"נווה זוהר","time":90,"region":"ים המלח 207 ","long":31.152068,"lat":35.364771},
{"city":"שני ליבנה","time":90,"region":"יהודה 207","long":31.356576,"lat":35.06989100000001},
{"city":"מצוקי דרגות","time":90,"region":"ים המלח 210","long":31.591008,"lat":35.393344},
{"city":"עין גדי","time":90,"region":"ים המלח 207 ","long":31.451191,"lat":35.383571},
{"city":"אבנת","time":90,"region":"ים המלח 210","long":31.679039,"lat":35.436945},
{"city":"תראמה","time":90,"region":"יהודה 207","long":31.481397,"lat":35.032693},
{"city":"מצדה","time":90,"region":"ים המלח 207 ","long":31.3156136,"lat":35.3537591},
{"city":"עין בוקק","time":90,"region":"ים המלח 207 ","long":31.200156,"lat":35.362522},
{"city":"תפוח","time":90,"region":"יהודה 207","long":31.538448,"lat":35.050973},
{"city":"גבעת זאב","time":90,"region":"שומרון 127","long":31.861189,"lat":35.167252},
{"city":"רמאללה","time":90,"region":"שומרון 126","long":31.8980428,"lat":35.2042714},
{"city":"שבתין","time":90,"region":"שומרון 126","long":31.974291,"lat":35.050558},
{"city":"עין יברוד","time":90,"region":"שומרון 126","long":31.953259,"lat":35.249852},
{"city":"עין סיניא","time":90,"region":"שומרון 126","long":31.972239,"lat":35.227966},
{"city":"ג'לג'וליה","time":90,"region":"שרון 143","long":32.1524568,"lat":34.9539749},
{"city":"אלישמע","time":90,"region":"שרון 143","long":32.154778,"lat":34.930461},
{"city":"בית איג'זא","time":90,"region":"שומרון 127","long":31.847577,"lat":35.152859},
{"city":"ירושלים","time":90,"region":"ירושלים 194","long":31.768319,"lat":35.21371},
{"city":"רמת רחל","time":90,"region":"ירושלים 194","long":31.7403163,"lat":35.2178825},
{"city":"חיזמא","time":90,"region":"ירושלים 194","long":31.836461,"lat":35.263231},
{"city":"ענאתא","time":90,"region":"ירושלים 194","long":31.811201,"lat":35.259602},
{"city":"ירושלים","time":90,"region":"ירושלים 194","long":31.768319,"lat":35.21371},
{"city":"נשר","time":60,"region":"כרמל 80","long":32.7649,"lat":35.049191},
{"city":"ימין אורד","time":60,"region":"כרמל 81","long":32.701798,"lat":34.9878},
{"city":"גבע כרמל","time":60,"region":"כרמל 81","long":32.662163,"lat":34.954078},
{"city":"שחרות","time":180,"region":"ערבה 310","long":29.904093,"lat":34.999173},
{"city":"שעל","time":15,"region":"קצרין 7","long":33.11653,"lat":35.718816},
{"city":"אום דאר","time":90,"region":"שומרון 118","long":32.457529,"lat":35.138167},
{"city":"בצת","time":10,"region":"קו העימות 14","long":33.070047,"lat":35.132636},
{"city":"מצובה","time":10,"region":"קו העימות 14","long":33.062312,"lat":35.155705},
{"city":"שלומי","time":10,"region":"קו העימות 14","long":33.072609,"lat":35.145945},
{"city":"לימן","time":10,"region":"קו העימות 14","long":33.058732,"lat":35.111815},
{"city":"גנות","time":90,"region":"שפלה 174","long":32.018204,"lat":34.825877},
{"city":"מרכז שוהם","time":90,"region":"שפלה 173","long":31.991562,"lat":34.941558},
{"city":"נווה ירק","time":90,"region":"שרון 143","long":32.132729,"lat":34.925488},
{"city":"אשדות יעקב מאוחד","time":60,"region":"תבור 98","long":32.664808,"lat":35.582769},
{"city":"בית זרע","time":60,"region":"תבור 98","long":32.689296,"lat":35.574062},
{"city":"חמד","time":90,"region":"שפלה 174","long":32.017992,"lat":34.841265},
{"city":"יגל","time":90,"region":"שפלה 174","long":31.987792,"lat":34.880262},
{"city":"דגניה א'","time":60,"region":"תבור 98","long":32.706938,"lat":35.575062},
{"city":"הבונים","time":90,"region":"מנשה 102","long":32.636586,"lat":34.932704},
{"city":"עופר","time":90,"region":"מנשה 102","long":32.621882,"lat":34.983472},
{"city":"נחשולים","time":90,"region":"מנשה 102","long":32.61309,"lat":34.92225},
{"city":"עין איילה","time":90,"region":"מנשה 102","long":32.629963,"lat":34.944296},
{"city":"פוריידיס","time":90,"region":"מנשה 102","long":32.597351,"lat":34.951899},
{"city":"מעיין צבי","time":90,"region":"מנשה 102","long":32.568484,"lat":34.940623},
{"city":"זכרון יעקב","time":90,"region":"מנשה 102","long":32.573905,"lat":34.951977},
{"city":"ניר אליהו","time":90,"region":"עמק חפר 139","long":32.197593,"lat":34.949375},
{"city":"עין ורד","time":90,"region":"עמק חפר 139","long":32.264467,"lat":34.930705},
{"city":"עזריאל","time":90,"region":"עמק חפר 139","long":32.262841,"lat":34.971133},
{"city":"פרדסיה","time":90,"region":"עמק חפר 139","long":32.305011,"lat":34.911731},
{"city":"עין שריד","time":90,"region":"עמק חפר 139","long":32.274901,"lat":34.93418},
{"city":"צור משה","time":90,"region":"עמק חפר 139","long":32.298911,"lat":34.913117},
{"city":"פורת","time":90,"region":"עמק חפר 139","long":32.277081,"lat":34.948816},
{"city":"צור יצחק","time":90,"region":"עמק חפר 139","long":32.241478,"lat":34.997998},
{"city":"צור נתן","time":90,"region":"עמק חפר 139","long":32.239673,"lat":35.01402},
{"city":"ביתוניא","time":90,"region":"שומרון 126","long":31.889281,"lat":35.169813},
{"city":"ביתין","time":90,"region":"שומרון 126","long":31.926481,"lat":35.236911},
{"city":"ברקת","time":90,"region":"שפלה 173","long":32.018344,"lat":34.943179},
{"city":"בית עריף","time":90,"region":"שפלה 173","long":31.995352,"lat":34.935103},
{"city":"שוהם","time":90,"region":"שפלה 173","long":31.9957581,"lat":34.9488403},
{"city":"יציץ","time":90,"region":"שפלה 184","long":31.863226,"lat":34.861903},
{"city":"חבלה","time":90,"region":"שרון 143","long":32.163844,"lat":34.97828},
{"city":"כפר שמואל","time":90,"region":"שפלה 184","long":31.888259,"lat":34.934819},
{"city":"תל יצחק","time":90,"region":"שרון 142","long":32.252745,"lat":34.872378},
{"city":"ג'לג'וליה","time":90,"region":"שרון 143","long":32.1524568,"lat":34.9539749},
{"city":"בית חנניה","time":90,"region":"מנשה 104","long":32.529504,"lat":34.926734},
{"city":"אלוני יצחק","time":90,"region":"מנשה 104","long":32.509997,"lat":35.00519999999999},
{"city":"עמיקם","time":90,"region":"מנשה 104","long":32.564626,"lat":35.020326},
{"city":"מעגן מיכאל","time":90,"region":"מנשה 104","long":32.55871,"lat":34.917816},
{"city":"כפר גליקסון","time":90,"region":"מנשה 104","long":32.505824,"lat":35.00354},
{"city":"ג'סר א זרקא","time":90,"region":"מנשה 104","long":32.536262,"lat":34.911569},
{"city":"בנימינה גבעת עדה","time":90,"region":"מנשה 104","long":32.517078,"lat":34.955096},
{"city":"רגבים","time":90,"region":"מנשה 104","long":32.52344,"lat":35.033987},
{"city":"קיסריה","time":90,"region":"מנשה 105","long":32.519016,"lat":34.904544},
{"city":"שדי אברהם","time":15,"region":"עוטף עזה 238","long":31.211594,"lat":34.335692},
{"city":"גברעם","time":15,"region":"עוטף עזה 251","long":31.591461,"lat":34.612156},
{"city":"יבול","time":15,"region":"עוטף עזה 238","long":31.189458,"lat":34.318952},
{"city":"פרי גן","time":15,"region":"עוטף עזה 238","long":31.222015,"lat":34.355936},
{"city":"יתד","time":15,"region":"עוטף עזה 238","long":31.207042,"lat":34.326126},
{"city":"ברקאי","time":90,"region":"עירון 112","long":32.476096,"lat":35.031044},
{"city":"תלמי יוסף","time":15,"region":"עוטף עזה 238","long":31.199958,"lat":34.363751},
{"city":"אל מועלקה","time":90,"region":"עירון 112","long":32.503982,"lat":35.123878},
{"city":"ביתוניא","time":90,"region":"שומרון 126","long":31.889281,"lat":35.169813},
{"city":"בית סירא","time":90,"region":"שומרון 126","long":31.88743,"lat":35.04532},
{"city":"נצר חזני","time":90,"region":"שפלה 184","long":31.8214,"lat":34.862554},
{"city":"ביתילו","time":90,"region":"שומרון 126","long":31.976599,"lat":35.114167},
{"city":"ג'אניה","time":90,"region":"שומרון 126","long":31.938419,"lat":35.123984},
{"city":"גבעת השלושה","time":90,"region":"שפלה 168","long":32.09634,"lat":34.920628},
{"city":"ג'ודירה","time":90,"region":"שומרון 127","long":31.856605,"lat":35.197686},
{"city":"בית חרות","time":90,"region":"שרון 137","long":32.376223,"lat":34.873765},
{"city":"ג'האלין","time":90,"region":"מעלה אדומים 200","long":31.764899,"lat":35.281138},
{"city":"תלמי אלעזר","time":90,"region":"מנשה 108","long":32.447228,"lat":34.974991},
{"city":"עיזרייה","time":90,"region":"מעלה אדומים 200","long":31.769135,"lat":35.271533},
{"city":"מעלה אדומים","time":90,"region":"מעלה אדומים 200","long":31.777369,"lat":35.297955},
{"city":"אבו סריחאן","time":90,"region":"נגב 287","long":31.254333,"lat":34.881407},
{"city":"יאסיד","time":90,"region":"שומרון 119","long":32.295967,"lat":35.277143},
{"city":"טלוזה","time":90,"region":"שומרון 119","long":32.27068,"lat":35.29547900000001},
{"city":"ח'ירבת בית חסן","time":90,"region":"שומרון 119","long":32.237706,"lat":35.403806},
{"city":"כפר ראעי","time":90,"region":"שומרון 119","long":32.373418,"lat":35.155536},
{"city":"טובאס","time":90,"region":"שומרון 119","long":32.321086,"lat":35.369953},
{"city":"טמון","time":90,"region":"שומרון 119","long":32.283121,"lat":35.385789},
{"city":"כופיר","time":90,"region":"שומרון 119","long":32.371729,"lat":35.341252},
{"city":"דיר ע'סאנה","time":90,"region":"שומרון 124","long":32.046374,"lat":35.098124},
{"city":"מסחה","time":90,"region":"שומרון 121","long":32.107264,"lat":35.050974},
{"city":"יאסוף","time":90,"region":"שומרון 124","long":32.109371,"lat":35.239715},
{"city":"משמר איילון","time":90,"region":"שפלה 184","long":31.872478,"lat":34.943253},
{"city":"נצר חזני","time":90,"region":"שפלה 184","long":31.8214,"lat":34.862554},
{"city":"כפר שמואל","time":90,"region":"שפלה 184","long":31.888259,"lat":34.934819},
{"city":"שדה אילן","time":60,"region":"תבור 98","long":32.75051,"lat":35.422429},
{"city":"בלפוריה","time":60,"region":"תבור 95","long":32.629988,"lat":35.296281},
{"city":"כפר גדעון","time":60,"region":"תבור 95","long":32.644579,"lat":35.289278},
{"city":"פוריה כפר עבודה","time":60,"region":"תבור 98","long":32.719846,"lat":35.545563},
{"city":"אעצם","time":90,"region":"נגב 296","long":31.295816,"lat":34.903102},
{"city":"סנסנה","time":90,"region":"נגב 296","long":31.36176499999999,"lat":34.901003},
{"city":"מולדה","time":90,"region":"נגב 296","long":31.261071,"lat":34.975564},
{"city":"כרמים","time":90,"region":"נגב 296","long":31.333464,"lat":34.917879},
{"city":"חורה","time":90,"region":"נגב 296","long":31.300399,"lat":34.935688},
{"city":"מיתר","time":90,"region":"נגב 296","long":31.327011,"lat":34.943213},
{"city":"כרמית","time":90,"region":"נגב 296","long":31.332182,"lat":34.896813},
{"city":"אבו תלול","time":90,"region":"נגב 297","long":31.142612,"lat":34.913514},
{"city":"ניר עוז","time":15,"region":"עוטף עזה 232","long":31.309697,"lat":34.402075},
{"city":"חולית","time":15,"region":"עוטף עזה 236","long":31.230563,"lat":34.32734},
{"city":"מגן","time":15,"region":"עוטף עזה 233","long":31.298108,"lat":34.427059},
{"city":"ניר יצחק","time":15,"region":"עוטף עזה 236","long":31.23604,"lat":34.356702},
{"city":"עמיעוז","time":15,"region":"עוטף עזה 234","long":31.248463,"lat":34.413404},
{"city":"ישע","time":15,"region":"עוטף עזה 234","long":31.247595,"lat":34.403091},
{"city":"עין הבשור","time":15,"region":"עוטף עזה 233","long":31.280895,"lat":34.443446},
{"city":"מבטחים","time":15,"region":"עוטף עזה 234","long":31.242423,"lat":34.407488},
{"city":"מועצה אזורית אשכול","time":15,"region":"עוטף עזה 233","long":31.30247799999999,"lat":34.432251},
{"city":"מועצה אזורית אשכול","time":15,"region":"עוטף עזה 233","long":31.303121,"lat":34.431501},
{"city":"געש","time":90,"region":"שרון 142","long":32.228477,"lat":34.824411},
{"city":"יקום","time":90,"region":"שרון 142","long":32.249196,"lat":34.84190299999999},
{"city":"ורדים מוסד חינוכי","time":90,"region":"שרון 142","long":32.218787,"lat":34.856058},
{"city":"אלישמע","time":90,"region":"שרון 143","long":32.154778,"lat":34.930461},
{"city":"גזית","time":60,"region":"תבור 96","long":32.639307,"lat":35.446239},
{"city":"זבארגה","time":90,"region":"נגב 299","long":31.236449,"lat":35.03419},
{"city":"אל עביד","time":90,"region":"נגב 299","long":31.265044,"lat":35.091313},
{"city":"ג'נאביב","time":90,"region":"נגב 299","long":31.287156,"lat":35.108132},
{"city":"דריג'את","time":90,"region":"נגב 299","long":31.301885,"lat":35.076793},
{"city":"מעיין ברוך","time":10,"region":"קו העימות 26","long":33.239349,"lat":35.609359},
{"city":"מנרה","time":10,"region":"קו העימות 26","long":33.195375,"lat":35.543728},
{"city":"משגב עם","time":10,"region":"קו העימות 26","long":33.247572,"lat":35.548499},
{"city":"כפר גלעדי","time":10,"region":"קו העימות 26","long":33.242078,"lat":35.574142},
{"city":"מרגליות","time":10,"region":"קו העימות 26","long":33.216474,"lat":35.544354},
{"city":"שדה נחמיה","time":10,"region":"קו העימות 25","long":33.188234,"lat":35.62307},
{"city":"בית הלל","time":10,"region":"קו העימות 26","long":33.208782,"lat":35.606515},
{"city":"שמיר","time":10,"region":"קו העימות 25","long":33.166754,"lat":35.659949},
{"city":"מטולה","time":10,"region":"קו העימות 26","long":33.277232,"lat":35.578235},
{"city":"יובל","time":10,"region":"קו העימות 26","long":33.246577,"lat":35.597063},
{"city":"כובר","time":90,"region":"שומרון 124","long":31.989948,"lat":35.158443},
{"city":"אבו קש","time":90,"region":"שומרון 126","long":31.950733,"lat":35.184719},
{"city":"בורקה","time":90,"region":"שומרון 126","long":31.896059,"lat":35.254768},
{"city":"בורקה","time":90,"region":"שומרון 126","long":32.301365,"lat":35.192933},
{"city":"כפר סירקין","time":90,"region":"שפלה 168","long":32.076684,"lat":34.922763},
{"city":"עלי","time":90,"region":"שומרון 125","long":32.071177,"lat":35.266859},
{"city":"שילת","time":90,"region":"שפלה 181","long":31.921173,"lat":35.014572},
{"city":"פתח תקווה","time":90,"region":"שפלה 168","long":32.084041,"lat":34.887762},
{"city":"מודיעין מכבים רעות","time":90,"region":"שפלה 181","long":31.890267,"lat":35.010397},
{"city":"עזאזמה","time":90,"region":"נגב 300","long":31.16215,"lat":34.820191},
{"city":"כפר עזה","time":15,"region":"עוטף עזה 223","long":31.483416,"lat":34.532291},
{"city":"גבים","time":15,"region":"עוטף עזה 220","long":31.506273,"lat":34.598949},
{"city":"מפלסים","time":15,"region":"עוטף עזה 221","long":31.50220599999999,"lat":34.561674},
{"city":"שדרות","time":15,"region":"עוטף עזה 220","long":31.52269399999999,"lat":34.595581},
{"city":"עלומים","time":15,"region":"עוטף עזה 224","long":31.453049,"lat":34.514711},
{"city":"סעד","time":15,"region":"עוטף עזה 223","long":31.47018499999999,"lat":34.534356},
{"city":"יכיני","time":15,"region":"עוטף עזה 222","long":31.482205,"lat":34.598634},
{"city":"נחל עוז","time":15,"region":"עוטף עזה 224","long":31.47267999999999,"lat":34.497675},
{"city":"נחשונים","time":90,"region":"שפלה 169","long":32.063236,"lat":34.947011},
{"city":"אילניה","time":60,"region":"תבור 96","long":32.753908,"lat":35.408188},
{"city":"מידיה","time":90,"region":"שפלה 181","long":31.936093,"lat":35.004574},
{"city":"בית קשת","time":60,"region":"תבור 96","long":32.718446,"lat":35.394952},
{"city":"מבוא מודיעים","time":90,"region":"שפלה 181","long":31.933851,"lat":34.98799899999999},
{"city":"מעברות","time":90,"region":"שרון 138","long":32.364197,"lat":34.905733},
{"city":"אבן יהודה","time":90,"region":"שרון 142","long":32.276648,"lat":34.885087},
{"city":"צוקי ים","time":90,"region":"שרון 138","long":32.360122,"lat":34.858542},
{"city":"ציפורי","time":60,"region":"תבור 95","long":32.746748,"lat":35.276351},
{"city":"באר מילכה","time":60,"region":"נגב 302","long":30.934112,"lat":34.405643},
{"city":"עזוז","time":90,"region":"נגב 302","long":30.792202,"lat":34.472404},
{"city":"משאבי שדה","time":90,"region":"נגב 302","long":31.00404199999999,"lat":34.785029},
{"city":"קציעות","time":90,"region":"נגב 302","long":30.872313,"lat":34.467412},
{"city":"ביר הדאג'","time":90,"region":"נגב 302","long":31.02316,"lat":34.709138},
{"city":"כמהין","time":60,"region":"נגב 302","long":30.910327,"lat":34.430725},
{"city":"טללים","time":90,"region":"נגב 302","long":30.991511,"lat":34.771261},
{"city":"ניצנה כפר נוער","time":60,"region":"נגב 302","long":30.886468,"lat":34.421518},
{"city":"מעלה שביט","time":90,"region":"נגב 302","long":31.001742,"lat":34.765444},
{"city":"איג'ניסיניא","time":90,"region":"שומרון 119","long":32.273099,"lat":35.216532},
{"city":"בית אומרין","time":90,"region":"שומרון 119","long":32.292761,"lat":35.215727},
{"city":"איכתאבא","time":90,"region":"שומרון 119","long":32.326014,"lat":35.054225},
{"city":"אקרע","time":90,"region":"שומרון 119","long":32.342457,"lat":35.345071},
{"city":"בזאריה","time":90,"region":"שומרון 119","long":32.307275,"lat":35.163804},
{"city":"אירתאח","time":90,"region":"שומרון 119","long":32.297763,"lat":35.016529},
{"city":"מרחב עם","time":90,"region":"נגב 305","long":30.888848,"lat":34.827365},
{"city":"מרחב עם","time":90,"region":"נגב 305","long":30.888022,"lat":34.828175},
{"city":"מצפה רמון","time":90,"region":"נגב 305","long":30.610203,"lat":34.801898},
{"city":"שדה בוקר","time":90,"region":"נגב 305","long":30.873611,"lat":34.793098},
{"city":"אור הנר","time":15,"region":"עוטף עזה 219","long":31.556197,"lat":34.602305},
{"city":"נתיב העשרה","time":15,"region":"עוטף עזה 218","long":31.572407,"lat":34.539322},
{"city":"כרמיה","time":15,"region":"עוטף עזה 217","long":31.60269499999999,"lat":34.540413},
{"city":"יד מרדכי","time":15,"region":"עוטף עזה 218","long":31.586963,"lat":34.5575},
{"city":"זיקים","time":15,"region":"עוטף עזה 217","long":31.607204,"lat":34.520968},
{"city":"עאבוד","time":90,"region":"שומרון 124","long":32.016539,"lat":35.06880700000001},
{"city":"עג'ול","time":90,"region":"שומרון 124","long":32.023036,"lat":35.180439},
{"city":"סאוויה","time":90,"region":"שומרון 124","long":32.085165,"lat":35.256761},
{"city":"עבווין","time":90,"region":"שומרון 124","long":32.030795,"lat":35.201015},
{"city":"סינג'יל","time":90,"region":"שומרון 124","long":32.033607,"lat":35.263935},
{"city":"עטרת","time":90,"region":"שומרון 124","long":32.001207,"lat":35.176982},
{"city":"נבי סאלח","time":90,"region":"שומרון 124","long":32.016219,"lat":35.12453},
{"city":"מעלה לבונה","time":90,"region":"שומרון 124","long":32.054436,"lat":35.239503},
{"city":"שעלבים","time":90,"region":"שפלה 181","long":31.870235,"lat":34.984304},
{"city":"בית עוזיאל","time":90,"region":"שפלה 184","long":31.87005,"lat":34.904858},
{"city":"מודיעין מכבים רעות","time":90,"region":"שפלה 181","long":31.890267,"lat":35.010397},
{"city":"מידיה","time":90,"region":"שפלה 181","long":31.936093,"lat":35.004574},
{"city":"בית חשמונאי","time":90,"region":"שפלה 184","long":31.890298,"lat":34.917599},
{"city":"עיינות","time":90,"region":"שפלה 183","long":31.91579999999999,"lat":34.768097},
{"city":"שובה","time":15,"region":"עוטף עזה 225","long":31.44995,"lat":34.545496},
{"city":"תושיה","time":15,"region":"עוטף עזה 225","long":31.432895,"lat":34.541314},
{"city":"נירים","time":15,"region":"עוטף עזה 231","long":31.33572999999999,"lat":34.394087},
{"city":"שוקדה","time":15,"region":"עוטף עזה 225","long":31.422098,"lat":34.524383},
{"city":"תקומה","time":15,"region":"עוטף עזה 225","long":31.448536,"lat":34.578085},
{"city":"חוות יזרעם","time":15,"region":"עוטף עזה 225","long":31.442963,"lat":34.571844},
{"city":"כיסופים","time":15,"region":"עוטף עזה 230","long":31.374545,"lat":34.398992},
{"city":"רעים","time":15,"region":"עוטף עזה 228","long":31.386159,"lat":34.458823},
{"city":"כפר מימון","time":15,"region":"עוטף עזה 225","long":31.431401,"lat":34.53718},
{"city":"בארי","time":15,"region":"עוטף עזה 227","long":31.424513,"lat":34.492567},
{"city":"היוגב","time":60,"region":"עמק יזרעאל 89","long":32.612753,"lat":35.207483},
{"city":"שמשית","time":60,"region":"עמק יזרעאל 87","long":32.732527,"lat":35.246518},
{"city":"תמרת","time":60,"region":"עמק יזרעאל 87","long":32.703801,"lat":35.225489},
{"city":"שריד","time":60,"region":"עמק יזרעאל 87","long":32.663059,"lat":35.224755},
{"city":"אחוזת ברק","time":60,"region":"עמק יזרעאל 90","long":32.643101,"lat":35.338893},
{"city":"כפר ברוך","time":60,"region":"עמק יזרעאל 89","long":32.646048,"lat":35.193078},
{"city":"דחי","time":60,"region":"עמק יזרעאל 90","long":32.622491,"lat":35.343604},
{"city":"עלי זהב","time":90,"region":"שומרון 123","long":32.072227,"lat":35.064135},
{"city":"ג'מאלא","time":90,"region":"שומרון 126","long":31.97307,"lat":35.092029},
{"city":"ג'ילג'יליא","time":90,"region":"שומרון 124","long":32.031364,"lat":35.223285},
{"city":"דיר אבו משעל","time":90,"region":"שומרון 124","long":32.00004,"lat":35.070422},
{"city":"ראש העין","time":90,"region":"שפלה 170","long":32.095838,"lat":34.952177},
{"city":"בית עריף","time":90,"region":"שפלה 173","long":31.995352,"lat":34.935103},
{"city":"גברעם","time":15,"region":"עוטף עזה 251","long":31.591461,"lat":34.612156},
{"city":"שדי אברהם","time":15,"region":"עוטף עזה 238","long":31.211594,"lat":34.335692},
{"city":"תלמי יוסף","time":15,"region":"עוטף עזה 238","long":31.199958,"lat":34.363751},
{"city":"יתד","time":15,"region":"עוטף עזה 238","long":31.207042,"lat":34.326126},
{"city":"יבול","time":15,"region":"עוטף עזה 238","long":31.189458,"lat":34.318952},
{"city":"אבשלום","time":15,"region":"עוטף עזה 238","long":31.195397,"lat":34.3312},
{"city":"פרי גן","time":15,"region":"עוטף עזה 238","long":31.222015,"lat":34.355936},
{"city":"אל מועלקה","time":90,"region":"עירון 112","long":32.503982,"lat":35.123878},
{"city":"מעיליא","time":10,"region":"קו העימות 32","long":33.027194,"lat":35.256304},
{"city":"האון","time":15,"region":"קצרין 10","long":32.726748,"lat":35.622665},
{"city":"מעונה","time":10,"region":"קו העימות 32","long":33.016894,"lat":35.263626},
{"city":"עין יעקב","time":10,"region":"קו העימות 31","long":33.009312,"lat":35.229024},
{"city":"עבדון","time":10,"region":"קו העימות 31","long":33.048792,"lat":35.179128},
{"city":"מסדה","time":15,"region":"קצרין 10","long":32.682305,"lat":35.597657},
{"city":"מעלות תרשיחא","time":10,"region":"קו העימות 32","long":33.015026,"lat":35.276017},
{"city":"כפר ורדים","time":10,"region":"קו העימות 32","long":32.995088,"lat":35.269101},
{"city":"חוסן","time":10,"region":"קו העימות 32","long":32.997699,"lat":35.298723},
{"city":"הילה","time":10,"region":"קו העימות 32","long":33.036175,"lat":35.244582},
{"city":"ערערה","time":90,"region":"עירון 112","long":32.496323,"lat":35.097292},
{"city":"מי עמי","time":90,"region":"עירון 113","long":32.504963,"lat":35.146425},
{"city":"גבעת עוז","time":90,"region":"עירון 113","long":32.555934,"lat":35.198004},
{"city":"מעלה עירון","time":90,"region":"עירון 113","long":32.554128,"lat":35.182499},
{"city":"ריחן","time":90,"region":"עירון 112","long":32.468752,"lat":35.135271},
{"city":"אליכין","time":90,"region":"עמק חפר 137","long":32.407659,"lat":34.925028},
{"city":"ח'ירבת מועאוויה","time":90,"region":"עירון 113","long":32.531596,"lat":35.093327},
{"city":"גבעת חיים איחוד","time":90,"region":"עמק חפר 137","long":32.396745,"lat":34.932978},
{"city":"מעלה עירון","time":90,"region":"עירון 113","long":32.554128,"lat":35.182499},
{"city":"בית חזון","time":90,"region":"עמק חפר 137","long":32.387178,"lat":34.91291},
{"city":"חיבת ציון","time":90,"region":"עמק חפר 137","long":32.397995,"lat":34.911931},
{"city":"אליכין","time":90,"region":"עמק חפר 137","long":32.407659,"lat":34.925028},
{"city":"מי עמי","time":90,"region":"עירון 113","long":32.504963,"lat":35.146425},
{"city":"חרב לאת","time":90,"region":"עמק חפר 137","long":32.403526,"lat":34.917146},
{"city":"גבעת חיים מאוחד","time":90,"region":"עמק חפר 137","long":32.392148,"lat":34.929447},
{"city":"אלישיב","time":90,"region":"עמק חפר 137","long":32.380196,"lat":34.909945},
{"city":"נזלת זיד","time":90,"region":"שומרון 118","long":32.462388,"lat":35.175031},
{"city":"כפר קוד","time":90,"region":"שומרון 118","long":32.457509,"lat":35.227727},
{"city":"מבוא דותן","time":90,"region":"שומרון 118","long":32.420772,"lat":35.173869},
{"city":"מנשיה","time":90,"region":"שומרון 118","long":32.447108,"lat":35.234678},
{"city":"עאנין","time":90,"region":"שומרון 118","long":32.50171,"lat":35.16621},
{"city":"ערקה","time":90,"region":"שומרון 118","long":32.471414,"lat":35.199766},
{"city":"פיראסין","time":90,"region":"שומרון 118","long":32.426079,"lat":35.106191},
{"city":"פיראסין","time":90,"region":"שומרון 118","long":32.42656,"lat":35.105192},
{"city":"טירה","time":90,"region":"עמק חפר 139","long":32.235466,"lat":34.950506},
{"city":"טירה","time":90,"region":"עמק חפר 139","long":31.869948,"lat":35.125587},
{"city":"חרות","time":90,"region":"עמק חפר 139","long":32.240973,"lat":34.914127},
{"city":"כפר יעבץ","time":90,"region":"עמק חפר 139","long":32.273945,"lat":34.965463},
{"city":"משמרת","time":90,"region":"עמק חפר 139","long":32.227586,"lat":34.922055},
{"city":"כפר הס","time":90,"region":"עמק חפר 139","long":32.247721,"lat":34.935137},
{"city":"טייבה","time":90,"region":"עמק חפר 139","long":32.266892,"lat":35.009675},
{"city":"יעף","time":90,"region":"עמק חפר 139","long":32.268254,"lat":34.967425},
{"city":"כוכב יאיר","time":90,"region":"עמק חפר 139","long":32.220922,"lat":34.992405},
{"city":"כפר עבודה","time":90,"region":"עמק חפר 139","long":32.255731,"lat":34.93966899999999},
{"city":"ניר אליהו","time":90,"region":"עמק חפר 139","long":32.197593,"lat":34.949375},
{"city":"עין ורד","time":90,"region":"עמק חפר 139","long":32.264467,"lat":34.930705},
{"city":"פורת","time":90,"region":"עמק חפר 139","long":32.277081,"lat":34.948816},
{"city":"פרדסיה","time":90,"region":"עמק חפר 139","long":32.305011,"lat":34.911731},
{"city":"צור נתן","time":90,"region":"עמק חפר 139","long":32.239673,"lat":35.01402},
{"city":"צור משה","time":90,"region":"עמק חפר 139","long":32.298911,"lat":34.913117},
{"city":"עין שריד","time":90,"region":"עמק חפר 139","long":32.274901,"lat":34.93418},
{"city":"קדימה צורן","time":90,"region":"עמק חפר 139","long":32.277644,"lat":34.919297},
{"city":"רמת הכובש","time":90,"region":"עמק חפר 139","long":32.218313,"lat":34.93828999999999},
{"city":"צור יצחק","time":90,"region":"עמק חפר 139","long":32.241478,"lat":34.997998},
{"city":"בית אמין","time":90,"region":"שומרון 121","long":32.131863,"lat":35.021907},
{"city":"אבו סלמאן","time":90,"region":"שומרון 121","long":32.140361,"lat":34.998989},
{"city":"שופה","time":90,"region":"שומרון 120","long":32.276567,"lat":35.08026},
{"city":"שכם","time":90,"region":"שומרון 120","long":32.22504,"lat":35.260971},
{"city":"אלפי מנשה","time":90,"region":"שומרון 121","long":32.170631,"lat":35.014858},
{"city":"ג'ינסאפוט","time":90,"region":"שומרון 121","long":32.180632,"lat":35.130154},
{"city":"בידיה","time":90,"region":"שומרון 121","long":32.113366,"lat":35.077465},
{"city":"תל","time":90,"region":"שומרון 120","long":32.200187,"lat":35.213066},
{"city":"בחן","time":90,"region":"עמק חפר 149","long":32.351831,"lat":35.018542},
{"city":"זמר","time":90,"region":"עמק חפר 149","long":32.365684,"lat":35.034651},
{"city":"המעפיל","time":90,"region":"עמק חפר 149","long":32.378035,"lat":34.983146},
{"city":"מייסר","time":90,"region":"עמק חפר 149","long":32.445246,"lat":35.042131},
{"city":"להבות חביבה","time":90,"region":"עמק חפר 149","long":32.395216,"lat":35.01179},
{"city":"מצר","time":90,"region":"עמק חפר 149","long":32.440186,"lat":35.047702},
{"city":"מגל","time":90,"region":"עמק חפר 149","long":32.385556,"lat":35.036147},
{"city":"בת חפר","time":90,"region":"עמק חפר 150","long":32.333714,"lat":35.013729},
{"city":"בורגתה","time":90,"region":"עמק חפר 150","long":32.325972,"lat":34.963848},
{"city":"מגל","time":90,"region":"עמק חפר 149","long":32.385556,"lat":35.036147},
{"city":"מצר","time":90,"region":"עמק חפר 149","long":32.440186,"lat":35.047702},
{"city":"מייסר","time":90,"region":"עמק חפר 149","long":32.445246,"lat":35.042131},
{"city":"בארותיים","time":90,"region":"עמק חפר 150","long":32.321039,"lat":34.98343},
{"city":"גן יאשיה","time":90,"region":"עמק חפר 150","long":32.349487,"lat":34.996245},
{"city":"נזלת עיסא","time":90,"region":"עמק חפר 149","long":32.414832,"lat":35.05986},
{"city":"העוגן","time":90,"region":"עמק חפר 150","long":32.360437,"lat":34.923338},
{"city":"בית הלוי","time":90,"region":"עמק חפר 150","long":32.351596,"lat":34.930443},
{"city":"שבות רחל","time":90,"region":"שומרון 125","long":32.054539,"lat":35.310703},
{"city":"רמון","time":90,"region":"שומרון 125","long":31.927317,"lat":35.299468},
{"city":"רמון","time":90,"region":"שומרון 125","long":30.77611109999999,"lat":34.6666667},
{"city":"שילה","time":90,"region":"שומרון 125","long":32.054405,"lat":35.29909},
{"city":"תורמוס עייא","time":90,"region":"שומרון 125","long":32.032726,"lat":35.28837499999999},
{"city":"תלפית במרכז השומרון","time":90,"region":"שומרון 125","long":32.087297,"lat":35.291506},
{"city":"אבו קש","time":90,"region":"שומרון 126","long":31.950733,"lat":35.184719},
{"city":"בורקה","time":90,"region":"שומרון 126","long":31.896059,"lat":35.254768},
{"city":"בורקה","time":90,"region":"שומרון 126","long":32.301365,"lat":35.192933},
{"city":"אל בירה","time":90,"region":"שומרון 126","long":31.912563,"lat":35.221717},
{"city":"אבו שח'ידם","time":90,"region":"שומרון 126","long":31.966531,"lat":35.170814},
{"city":"בסמת טבעון","time":60,"region":"עמק יזרעאל 86","long":32.736287,"lat":35.1532},
{"city":"בית לחם הגלילית","time":60,"region":"עמק יזרעאל 87","long":32.734558,"lat":35.191271},
{"city":"שער העמקים","time":60,"region":"עמק יזרעאל 86","long":32.722621,"lat":35.110601},
{"city":"אלוני אבא","time":60,"region":"עמק יזרעאל 87","long":32.730945,"lat":35.172028},
{"city":"גבת","time":60,"region":"עמק יזרעאל 87","long":32.67656,"lat":35.213151},
{"city":"בית שערים","time":60,"region":"עמק יזרעאל 87","long":32.697679,"lat":35.179905},
{"city":"גבעת אלה","time":60,"region":"עמק יזרעאל 87","long":32.722007,"lat":35.244822},
{"city":"קרית טבעון","time":60,"region":"עמק יזרעאל 86","long":32.716221,"lat":35.127483},
{"city":"ניעלין","time":90,"region":"שפלה 181","long":31.946843,"lat":35.021461},
{"city":"שעלבים","time":90,"region":"שפלה 181","long":31.870235,"lat":34.984304},
{"city":"מידיה","time":90,"region":"שפלה 181","long":31.936093,"lat":35.004574},
{"city":"מבוא מודיעים","time":90,"region":"שפלה 181","long":31.933851,"lat":34.98799899999999},
{"city":"מודיעין עילית","time":90,"region":"שפלה 181","long":31.932477,"lat":35.042265},
{"city":"נוף איילון","time":90,"region":"שפלה 181","long":31.871215,"lat":34.991321},
{"city":"מתתיהו","time":90,"region":"שפלה 181","long":31.929747,"lat":35.034997},
{"city":"שילת","time":90,"region":"שפלה 181","long":31.921173,"lat":35.014572},
{"city":"מודיעין מכבים רעות","time":90,"region":"שפלה 181","long":31.890267,"lat":35.010397},
{"city":"שמשית","time":60,"region":"עמק יזרעאל 87","long":32.732527,"lat":35.246518},
{"city":"שריד","time":60,"region":"עמק יזרעאל 87","long":32.663059,"lat":35.224755},
{"city":"היוגב","time":60,"region":"עמק יזרעאל 89","long":32.612753,"lat":35.207483},
{"city":"כפר ברוך","time":60,"region":"עמק יזרעאל 89","long":32.646048,"lat":35.193078},
{"city":"תמרת","time":60,"region":"עמק יזרעאל 87","long":32.703801,"lat":35.225489},
{"city":"עילוט","time":60,"region":"עמק יזרעאל 87","long":32.717249,"lat":35.261482},
{"city":"רמת דוד","time":60,"region":"עמק יזרעאל 87","long":32.678991,"lat":35.20403599999999},
{"city":"ערב אל עיסאת","time":60,"region":"עמק יזרעאל 87","long":32.70667,"lat":35.253379},
{"city":"שדה יעקב","time":60,"region":"עמק יזרעאל 87","long":32.69756,"lat":35.141315},
{"city":"רמת ישי","time":60,"region":"עמק יזרעאל 87","long":32.704029,"lat":35.166003},
{"city":"גבע","time":60,"region":"עמק יזרעאל 93","long":32.56653000000001,"lat":35.37216},
{"city":"משגב עם","time":10,"region":"קו העימות 26","long":33.247572,"lat":35.548499},
{"city":"מלאה","time":60,"region":"עמק יזרעאל 93","long":32.563149,"lat":35.237528},
{"city":"אחוזת ברק","time":60,"region":"עמק יזרעאל 90","long":32.643101,"lat":35.338893},
{"city":"דברת","time":60,"region":"עמק יזרעאל 90","long":32.646729,"lat":35.350085},
{"city":"עין חרוד מאוחד","time":60,"region":"עמק יזרעאל 90","long":32.556806,"lat":35.392995},
{"city":"רמת צבי","time":60,"region":"עמק יזרעאל 93","long":32.591962,"lat":35.414497},
{"city":"יעל","time":60,"region":"עמק יזרעאל 93","long":32.552064,"lat":35.306548},
{"city":"פסוטה","time":10,"region":"קו העימות 17","long":33.04782,"lat":35.308827},
{"city":"אידמית","time":10,"region":"קו העימות 15","long":33.080013,"lat":35.199967},
{"city":"עין תמר","time":180,"region":"ערבה 310","long":30.943594,"lat":35.37407},
{"city":"הגושרים","time":10,"region":"קו העימות 28","long":33.221485,"lat":35.623028},
{"city":"קטורה","time":180,"region":"ערבה 310","long":29.97088699999999,"lat":35.06135500000001},
{"city":"צופר","time":180,"region":"ערבה 310","long":30.559394,"lat":35.181474},
{"city":"חניתה","time":10,"region":"קו העימות 15","long":33.087634,"lat":35.17343},
{"city":"יובל","time":10,"region":"קו העימות 26","long":33.246577,"lat":35.597063},
{"city":"מעיין ברוך","time":10,"region":"קו העימות 26","long":33.239349,"lat":35.609359},
{"city":"חבר","time":60,"region":"עמק יזרעאל 93","long":32.549097,"lat":35.264911},
{"city":"ברק","time":60,"region":"עמק יזרעאל 93","long":32.542821,"lat":35.265291},
{"city":"גדיש","time":60,"region":"עמק יזרעאל 93","long":32.558844,"lat":35.24443},
{"city":"דבורה","time":60,"region":"עמק יזרעאל 93","long":32.552895,"lat":35.263853},
{"city":"מגן שאול","time":60,"region":"עמק יזרעאל 93","long":32.521471,"lat":35.306431},
{"city":"גדעונה","time":60,"region":"עמק יזרעאל 93","long":32.549927,"lat":35.359202},
{"city":"כפר יחזקאל","time":60,"region":"עמק יזרעאל 93","long":32.566949,"lat":35.360888},
{"city":"גן נר","time":60,"region":"עמק יזרעאל 93","long":32.528706,"lat":35.336254},
{"city":"יזרעאל","time":60,"region":"עמק יזרעאל 93","long":32.562589,"lat":35.319425},
{"city":"חבר","time":60,"region":"עמק יזרעאל 93","long":32.549097,"lat":35.264911},
{"city":"יעל","time":60,"region":"עמק יזרעאל 93","long":32.552064,"lat":35.306548},
{"city":"פרזון","time":60,"region":"עמק יזרעאל 93","long":32.545456,"lat":35.311114},
{"city":"רם און","time":60,"region":"עמק יזרעאל 93","long":32.528742,"lat":35.258657},
{"city":"תל יוסף","time":60,"region":"עמק יזרעאל 93","long":32.556704,"lat":35.398914},
{"city":"מגן שאול","time":60,"region":"עמק יזרעאל 93","long":32.521471,"lat":35.306431},
{"city":"מלאה","time":60,"region":"עמק יזרעאל 93","long":32.563149,"lat":35.237528},
{"city":"רמת צבי","time":60,"region":"עמק יזרעאל 93","long":32.591962,"lat":35.414497},
{"city":"מיטב","time":60,"region":"עמק יזרעאל 93","long":32.545509,"lat":35.300898},
{"city":"מיטב","time":60,"region":"עמק יזרעאל 93","long":32.042985,"lat":34.850257},
{"city":"ניר יפה","time":60,"region":"עמק יזרעאל 93","long":32.568982,"lat":35.244896},
{"city":"נאות הכיכר","time":180,"region":"ערבה 310","long":30.933368,"lat":35.378126},
{"city":"שיטים","time":180,"region":"ערבה 308","long":30.176442,"lat":35.016722},
{"city":"אליפז","time":180,"region":"ערבה 310","long":29.79624799999999,"lat":35.012094},
{"city":"תל יוסף","time":60,"region":"עמק יזרעאל 93","long":32.556704,"lat":35.398914},
{"city":"באר אורה","time":180,"region":"ערבה 310","long":29.710166,"lat":34.987218},
{"city":"יהל","time":180,"region":"ערבה 310","long":30.084234,"lat":35.128393},
{"city":"חצבה","time":180,"region":"ערבה 310","long":30.767942,"lat":35.278498},
{"city":"גרופית","time":180,"region":"ערבה 310","long":29.941617,"lat":35.064691},
{"city":"לוטן","time":180,"region":"ערבה 310","long":29.988263,"lat":35.086776},
{"city":"עבדון","time":10,"region":"קו העימות 31","long":33.048792,"lat":35.179128},
{"city":"יחיעם","time":10,"region":"קו העימות 31","long":32.996109,"lat":35.22109100000001},
{"city":"כברי","time":10,"region":"קו העימות 30","long":33.020985,"lat":35.147007},
{"city":"שבי ציון","time":30,"region":"קו העימות 29","long":32.982079,"lat":35.083005},
{"city":"געתון","time":10,"region":"קו העימות 31","long":33.006075,"lat":35.213831},
{"city":"עין יעקב","time":10,"region":"קו העימות 31","long":33.009312,"lat":35.229024},
{"city":"נווה זיו","time":10,"region":"קו העימות 31","long":33.027399,"lat":35.18433},
{"city":"בן עמי","time":10,"region":"קו העימות 30","long":33.005369,"lat":35.122218},
{"city":"הילה","time":10,"region":"קו העימות 32","long":33.036175,"lat":35.244582},